stop_id,stop_code,stop_name,stop_desc,stop_lat,stop_lon,location_type,parent_station,wheelchair_boarding,platform_code,level_id
de:09162:1,,Karlsplatz (Stachus),,48.139505000000,11.566133000000,1,,0,,
de:09162:2_G,,Marienplatz,,48.137245000000,11.575421000000,1,,0,,
de:09162:3_G,,Isartor,,48.133642000000,11.583030000000,1,,0,,
de:09162:4_G,,Rosenheimer Platz,,48.128840000000,11.594061000000,1,,0,,
de:09162:5_G,,Ostbahnhof,,48.128054000000,11.603646000000,1,,0,,
de:09162:6,,"Hauptbahnhof (S, U, Bus, Tram)",,48.140027000000,11.561066000000,1,,0,,
de:09162:7,,Hackerbrücke,,48.142395000000,11.548589000000,1,,0,,
de:09162:8_G,,Donnersbergerbrücke,,48.142658000000,11.535150000000,1,,0,,
de:09162:9,,Laim,,48.143905000000,11.503260000000,1,,0,,
de:09162:10,,Pasing,,48.148898000000,11.460428000000,1,,0,,
de:09162:11,,Leonrodplatz,,48.159469000000,11.547394000000,1,,0,,
de:09162:12,,Hochschule München (Lothstr.),,48.154268000000,11.553835000000,1,,0,,
de:09162:13,,Sandstraße,,48.150582000000,11.558129000000,1,,0,,
de:09162:16,,Lenbachplatz,,48.140872000000,11.568513000000,1,,0,,
de:09162:19,,Maxmonument,,48.137569000000,11.588079000000,1,,0,,
de:09162:21,,Maximilianeum,,48.136058000000,11.595966000000,1,,0,,
de:09162:23,,Grillparzerstraße,,48.136334000000,11.609126000000,1,,0,,
de:09162:30,,Poccistraße,,48.125512000000,11.550358000000,1,,0,,
de:09162:34,,Nordbad,,48.160926000000,11.563411000000,1,,0,,
de:09162:40,,Goetheplatz,,48.129229000000,11.557751000000,1,,0,,
de:09162:42,,Mariahilfplatz,,48.124073000000,11.581296000000,1,,0,,
de:09162:43,,Kurfürstenplatz,,48.160248000000,11.575008000000,1,,0,,
de:09162:46,,Haidenauplatz,,48.132089000000,11.609629000000,1,,0,,
de:09162:50,,Sendlinger Tor,,48.133444000000,11.566681000000,1,,0,,
de:09162:54,,Donnersbergerstraße,,48.146267000000,11.535949000000,1,,0,,
de:09162:59,,Kapuzinerstraße,,48.125092000000,11.561947000000,1,,0,,
de:09162:60_G,,Odeonsplatz,,48.142514000000,11.577622000000,1,,0,,
de:09162:61,,Baldeplatz,,48.123347000000,11.567130000000,1,,0,,
de:09162:64,,Barthstraße,,48.140291000000,11.530227000000,1,,0,,
de:09162:65,,Trappentreustraße,,48.140099000000,11.534377000000,1,,0,,
de:09162:67,,Holzapfelstraße,,48.139242000000,11.547133000000,1,,0,,
de:09162:70,,Universität,,48.150067000000,11.581000000000,1,,0,,
de:09162:76,,Herkomerplatz,,48.150864000000,11.608794000000,1,,0,,
de:09162:80,,Giselastraße,,48.156521000000,11.584000000000,1,,0,,
de:09162:89,,Orleansstraße,,48.125320000000,11.599487000000,1,,0,,
de:09162:100_G,,München Hbf,,48.140291000000,11.559602000000,1,,0,,
de:09162:104,,Albrechtstraße,,48.155544000000,11.540216000000,1,,0,,
de:09162:105,,Fasaneriestraße,,48.157312000000,11.543459000000,1,,0,,
de:09162:106,,Infanteriestraße,,48.161447000000,11.553610000000,1,,0,,
de:09162:107,,Barbarastraße,,48.161357000000,11.558973000000,1,,0,,
de:09162:110,,Königsplatz,,48.144978000000,11.563240000000,1,,0,,
de:09162:140,,Hohenzollernplatz,,48.162352000000,11.568765000000,1,,0,,
de:09162:150,,Fraunhoferstraße,,48.129265000000,11.574307000000,1,,0,,
de:09162:160,,Kolumbusplatz,,48.119785000000,11.576616000000,1,,0,,
de:09162:170,,Stiglmaierplatz,,48.147885000000,11.556970000000,1,,0,,
de:09162:190,,Rotkreuzplatz,,48.154184000000,11.532931000000,1,,0,,
de:09162:200,,Westfriedhof,,48.169961000000,11.528511000000,1,,0,,
de:09162:205,,Volkartstraße,,48.155209000000,11.532599000000,1,,0,,
de:09162:210,,Amalienburgstraße,,48.165665000000,11.493279000000,1,,0,,
de:09162:211,,Botanischer Garten,,48.164467000000,11.502649000000,1,,0,,
de:09162:215,,Romanplatz,,48.155071000000,11.511452000000,1,,0,,
de:09162:216,,Steubenplatz,,48.150127000000,11.520274000000,1,,0,,
de:09162:217,,Briefzentrum,,48.149108000000,11.524262000000,1,,0,,
de:09162:218,,Burghausener Straße,,48.147286000000,11.529499000000,1,,0,,
de:09162:219,,Kriemhildenstraße,,48.152308000000,11.515225000000,1,,0,,
de:09162:222,,Marsstraße,,48.145074000000,11.541752000000,1,,0,,
de:09162:223,,Deroystraße,,48.144271000000,11.545444000000,1,,0,,
de:09162:232,,Hopfenstraße,,48.142383000000,11.554284000000,1,,0,,
de:09162:250,,Schwanthalerhöhe,,48.133768000000,11.541007000000,1,,0,,
de:09162:280,,Laimer Platz,,48.135459000000,11.501921000000,1,,0,,
de:09162:300_G,,Moosach,,48.180965000000,11.508146000000,1,,0,,
de:09162:302,,Hugo-Troendle-Straße,,48.179264000000,11.514920000000,1,,0,,
de:09162:303,,Wintrichring,,48.175934000000,11.521738000000,1,,0,,
de:09162:304,,Hanauer Straße,,48.171752000000,11.528610000000,1,,0,,
de:09162:305,,Borstei,,48.169673000000,11.533075000000,1,,0,,
de:09162:306,,Olympiapark West,,48.166390000000,11.537423000000,1,,0,,
de:09162:307,,Heideckstraße,,48.162873000000,11.542255000000,1,,0,,
de:09162:308,,Gartenstraße,,48.172154000000,11.564920000000,1,,0,,
de:09162:309,,Ackermannstraße,,48.167900000000,11.564902000000,1,,0,,
de:09162:311,,Herzogstraße,,48.163484000000,11.564183000000,1,,0,,
de:09162:312,,Georg-Brauchle-Ring,,48.177192000000,11.529068000000,1,,0,,
de:09162:340,,Petuelring,,48.175694000000,11.565872000000,1,,0,,
de:09162:350,,Olympiazentrum,,48.179354000000,11.555919000000,1,,0,,
de:09162:360,,Olympia-Einkaufszentrum,,48.182199000000,11.530029000000,1,,0,,
de:09162:370,,Moosacher St.-Martins-Platz,,48.181864000000,11.518594000000,1,,0,,
de:09162:380,,Oberwiesenfeld,,48.186003000000,11.547654000000,1,,0,,
de:09162:400,,Scheidplatz,,48.171537000000,11.572933000000,1,,0,,
de:09162:430,,Kieferngarten,,48.203075000000,11.613016000000,1,,0,,
de:09162:433,,Parzivalplatz,,48.171776000000,11.585923000000,1,,0,,
de:09162:434,,Potsdamer Straße,,48.167307000000,11.586228000000,1,,0,,
de:09184:460,,"Garching, Forschungszentrum",,48.264861000000,11.671227000000,1,,0,,
de:09162:470_G,,Fröttmaning,,48.211809000000,11.616672000000,1,,0,,
de:09184:480,,Garching-Hochbrück,,48.247229000000,11.630829000000,1,,0,,
de:09184:490,,Garching,,48.249419000000,11.652506000000,1,,0,,
de:09162:500,,Münchner Freiheit,,48.161962000000,11.586497000000,1,,0,,
de:09162:510,,Dietlindenstraße,,48.167151000000,11.590890000000,1,,0,,
de:09162:520,,Nordfriedhof,,48.173100000000,11.596909000000,1,,0,,
de:09162:530,,Alte Heide,,48.178941000000,11.602964000000,1,,0,,
de:09162:540,,Studentenstadt,,48.183673000000,11.607895000000,1,,0,,
de:09162:556,,Regina-Ullmann-Straße,,48.169889000000,11.635114000000,1,,0,,
de:09162:570,,Prinzregentenplatz,,48.139212000000,11.606970000000,1,,0,,
de:09162:580,,Max-Weber-Platz,,48.135693000000,11.598355000000,1,,0,,
de:09162:601,,Fritz-Meyer-Weg,,48.172387000000,11.636632000000,1,,0,,
de:09162:632,,Prinz-Eugen-Park,,48.162472000000,11.629203000000,1,,0,,
de:09162:633,,Schlösselgarten,,48.158726000000,11.628997000000,1,,0,,
de:09162:637,,Taimerhofstraße,,48.166804000000,11.630865000000,1,,0,,
de:09162:650,,Effnerplatz,,48.152104000000,11.613267000000,1,,0,,
de:09162:651,,Arabellastraße,,48.153543000000,11.618585000000,1,,0,,
de:09162:653,,Cosimabad,,48.153603000000,11.629401000000,1,,0,,
de:09162:655,,Arabellapark/Klinikum Bogenh.,,48.153753000000,11.623373000000,1,,0,,
de:09162:662,,Einsteinstraße,,48.136874000000,11.614678000000,1,,0,,
de:09162:670,,Arabellapark,,48.153279000000,11.620427000000,1,,0,,
de:09162:680,,Richard-Strauss-Straße,,48.148532000000,11.616600000000,1,,0,,
de:09162:740,,Milbertshofen,,48.180953000000,11.573158000000,1,,0,,
de:09162:750,,Frankfurter Ring,,48.186835000000,11.572699000000,1,,0,,
de:09162:760,,Am Hart,,48.195950000000,11.571819000000,1,,0,,
de:09162:770,,Harthof,,48.204715000000,11.569394000000,1,,0,,
de:09162:780,,Dülferstraße,,48.212492000000,11.562908000000,1,,0,,
de:09162:790,,Hasenbergl,,48.213408000000,11.555029000000,1,,0,,
de:09162:800_G,,Riem,,48.143384000000,11.679015000000,1,,0,,
de:09162:901,,Ampfingstraße,,48.130974000000,11.615711000000,1,,0,,
de:09162:902,,Schlüsselbergstraße,,48.129721000000,11.623041000000,1,,0,,
de:09162:903,,Baumkirchner Straße,,48.128378000000,11.630254000000,1,,0,,
de:09162:904,,Mutschellestraße,,48.126669000000,11.638267000000,1,,0,,
de:09162:910_G,,Berg am Laim,,48.134020000000,11.633129000000,1,,0,,
de:09162:920_G,,Trudering,,48.125710000000,11.662297000000,1,,0,,
de:09162:970,,Otto-Hahn-Ring,,48.092228000000,11.649020000000,1,,0,,
de:09162:1000_G,,Perlach,,48.093452000000,11.630973000000,1,,0,,
de:09162:1001,,Anzinger Straße,,48.121218000000,11.605641000000,1,,0,,
de:09162:1003,,Ramersdorf,,48.115419000000,11.613393000000,1,,0,,
de:09162:1010_G,,Neuperlach Süd,,48.088952000000,11.645104000000,1,,0,,
de:09162:1030,,Neuperlach Zentrum,,48.101203000000,11.646155000000,1,,0,,
de:09162:1040,,Quiddestraße,,48.108222000000,11.646676000000,1,,0,,
de:09162:1070,,Karl-Preis-Platz,,48.117938000000,11.608425000000,1,,0,,
de:09162:1105,,Ostfriedhof,,48.119048000000,11.583659000000,1,,0,,
de:09162:1106,,St.-Martins-Platz,,48.117230000000,11.588402000000,1,,0,,
de:09162:1107,,Werinherstraße,,48.114957000000,11.592480000000,1,,0,,
de:09162:1108,,Chiemgaustraße,,48.106716000000,11.596325000000,1,,0,,
de:09162:1109,,Schwanseestraße,,48.103147000000,11.596999000000,1,,0,,
de:09162:1110,,Giesing,,48.111005000000,11.595714000000,1,,0,,
de:09162:1115,,Tegernseer Landstraße,,48.112246000000,11.576364000000,1,,0,,
de:09162:1117,,Kurzstraße,,48.104635000000,11.569861000000,1,,0,,
de:09162:1118,,Südtiroler Straße,,48.100735000000,11.566636000000,1,,0,,
de:09162:1119,,Tiroler Platz,,48.096212000000,11.563689000000,1,,0,,
de:09162:1120_G,,Fasangarten,,48.093308000000,11.604617000000,1,,0,,
de:09162:1121,,Authariplatz,,48.092024000000,11.562575000000,1,,0,,
de:09162:1122,,Theodolindenplatz,,48.090338000000,11.556979000000,1,,0,,
de:09162:1124,,Menterschwaige,,48.080208000000,11.551805000000,1,,0,,
de:09162:1130,,Harras,,48.116895000000,11.537908000000,1,,0,,
de:09162:1150_G,,Heimeranplatz,,48.133546000000,11.532410000000,1,,0,,
de:09162:1170,,Silberhornstraße,,48.115131000000,11.579715000000,1,,0,,
de:09162:1180,,Candidplatz,,48.111659000000,11.570400000000,1,,0,,
de:09162:1190,,Wettersteinplatz,,48.108270000000,11.575664000000,1,,0,,
de:09162:1200,,St.-Quirin-Platz,,48.104677000000,11.581161000000,1,,0,,
de:09162:1202,,Lautensackstraße,,48.139997000000,11.518360000000,1,,0,,
de:09162:1204,,Agnes-Bernauer-Straße,,48.139349000000,11.511138000000,1,,0,,
de:09162:1206,,Am Lokschuppen,,48.140722000000,11.524253000000,1,,0,,
de:09162:1230,,Kreillerstraße,,48.125776000000,11.646739000000,1,,0,,
de:09162:1250,,Messestadt West,,48.133432000000,11.690756000000,1,,0,,
de:09162:1260_G_G,,Messestadt Ost,,48.133384000000,11.703261000000,1,,0,,
de:09162:1300,,Mittersendling,,48.107796000000,11.536416000000,1,,0,,
de:09162:1310,,Siemenswerke,,48.094550000000,11.532832000000,1,,0,,
de:09162:1312,,Waldfriedhof (Wendeschleife),,48.112276000000,11.502990000000,1,,0,,
de:09162:1330,,Partnachplatz,,48.116973000000,11.526436000000,1,,0,,
de:09162:1340,,Westpark,,48.117932000000,11.516591000000,1,,0,,
de:09162:1430,,Brudermühlstraße,,48.112594000000,11.548723000000,1,,0,,
de:09162:1450,,Obersendling,,48.098204000000,11.535698000000,1,,0,,
de:09162:1460,,Aidenbachstraße,,48.097874000000,11.525161000000,1,,0,,
de:09162:1470,,Machtlfinger Straße,,48.097220000000,11.514075000000,1,,0,,
de:09162:1480,,Forstenrieder Allee,,48.095096000000,11.499370000000,1,,0,,
de:09162:1500,,Fürstenried West,,48.088340000000,11.480936000000,1,,0,,
de:09162:1510,,Holzapfelkreuth,,48.116313000000,11.502397000000,1,,0,,
de:09162:1516,,Ammerseestraße,,48.125830000000,11.502819000000,1,,0,,
de:09162:1520,,Haderner Stern,,48.118394000000,11.488824000000,1,,0,,
de:09162:1530,,Großhadern,,48.114699000000,11.477029000000,1,,0,,
de:09162:1602,,Fürstenrieder Straße,,48.139691000000,11.503125000000,1,,0,,
de:09162:1604,,Agnes-Bernauer-Platz,,48.139859000000,11.496028000000,1,,0,,
de:09162:1606,,Willibaldplatz,,48.140896000000,11.488797000000,1,,0,,
de:09162:1608,,Lohensteinstraße,,48.141645000000,11.481601000000,1,,0,,
de:09162:1612,,Westbad,,48.142275000000,11.475475000000,1,,0,,
de:09162:1614,,Am Knie,,48.145458000000,11.470893000000,1,,0,,
de:09162:1618,,Offenbachstraße,,48.146135000000,11.465692000000,1,,0,,
de:09162:1710_G,,Aubing,,48.156036000000,11.412512000000,1,,0,,
de:09162:1740,,Freiham,,48.139997000000,11.409916000000,1,,0,,
de:09162:1800,,Langwied,,48.163059000000,11.432418000000,1,,0,,
de:09162:1900,,Obermenzing,,48.164221000000,11.478035000000,1,,0,,
de:09162:1910,,Allach,,48.189746000000,11.468109000000,1,,0,,
de:09174:1920,,Karlsfeld,,48.211151000000,11.460670000000,1,,0,,
de:09162:1930,,Untermenzing,,48.177671000000,11.472708000000,1,,0,,
de:09184:2030_G,,Unterföhring,,48.191464000000,11.647260000000,1,,0,,
de:09184:2040_G,,Ismaning,,48.225923000000,11.679078000000,1,,0,,
de:09184:2110_G,,Feldkirchen,,48.151152000000,11.731450000000,1,,0,,
de:09184:2130_G,,Gronsdorf,,48.118382000000,11.699506000000,1,,0,,
de:09184:2200_G,,Neubiberg,,48.076625000000,11.660312000000,1,,0,,
de:09184:2300_G,,Fasanenpark,,48.079470000000,11.607347000000,1,,0,,
de:09184:2330_G,,Furth,,48.034768000000,11.591591000000,1,,0,,
de:09184:2340_G,,Deisenhofen,,48.020248000000,11.584009000000,1,,0,,
de:09184:2350_G,,Sauerlach,,47.973763000000,11.654671000000,1,,0,,
de:09184:2456,,"Grünwald, Derbolfinger Pl.",,48.041616000000,11.523732000000,1,,0,,
de:09184:2458,,"Grünwald, Bavariafilmplatz",,48.067579000000,11.546262000000,1,,0,,
de:09184:2460,,"Grünwald, Robert-Koch-Straße",,48.062717000000,11.545058000000,1,,0,,
de:09184:2462,,"Grünwald, Parkplatz",,48.055140000000,11.540683000000,1,,0,,
de:09184:2464,,"Grünwald, Ludwig-Thoma-Straße",,48.049561000000,11.535572000000,1,,0,,
de:09184:2530_G,,Höllriegelskreuth,,48.043195000000,11.510015000000,1,,0,,
de:09184:2590,,Gräfelfing,,48.119977000000,11.427361000000,1,,0,,
de:09184:2600_G,,Planegg,,48.104977000000,11.414749000000,1,,0,,
de:09178:2660_G,,Neufahrn,,48.320839000000,11.660707000000,1,,0,,
de:09175:4020_G,,Zorneding,,48.088892000000,11.832438000000,1,,0,,
de:09162:5000,,Hauptbahnhof Süd,,48.139259000000,11.559126000000,1,,0,,
de:09188:5360_G,,Gilching-Argelsried,,48.106692000000,11.300716000000,1,,0,,
de:09188:5370,,Neugilching,,48.097976000000,11.288392000000,1,,0,,
de:09188:5380_G,,Weßling,,48.076925000000,11.250519000000,1,,0,,
de:09188:5430_G,,Gauting,,48.070083000000,11.376337000000,1,,0,,
de:09188:5450_G,,Starnberg,,47.996575000000,11.344446000000,1,,0,,
de:09179:6140_G,,Maisach,,48.214767000000,11.257355000000,1,,0,,
de:09179:6200_G,,Buchenau,,48.161477000000,11.225509000000,1,,0,,
de:09179:6250_G,,Germering-Unterpfaffenhofen,,48.129295000000,11.364551000000,1,,0,,
de:09174:6820_G,,Röhrmoos,,48.332289000000,11.445354000000,1,,0,,
de:09174:6850_G,,Dachau Stadt,,48.266344000000,11.440485000000,1,,0,,
de:09174:6880_G,,Schwabhausen,,48.301326000000,11.364587000000,1,,0,,
de:09174:6920_G,,Erdweg,,48.333030000000,11.303995000000,1,,0,,
de:09162:7000,,Hauptbahnhof Nord,,48.141346000000,11.559934000000,1,,0,,
de:09162:1:1:1,,Karlsplatz (Stachus),Steig 1,48.138378000000,11.565019000000,0,de:09162:1,0,1,2
de:09162:1:1:91,,Karlsplatz (Stachus),Steig 1,48.138378000000,11.565019000000,0,de:09162:1,0,91,2
de:09162:1:2:3,,Karlsplatz (Stachus),Steig 2+3,48.138360000000,11.565189000000,0,de:09162:1,0,3,2
de:09162:1:2:2,,Karlsplatz (Stachus),Steig 2+3,48.138648000000,11.565189000000,0,de:09162:1,0,2,2
de:09162:1:2:92,,Karlsplatz (Stachus),Steig 2+3,48.138648000000,11.565189000000,0,de:09162:1,0,92,2
de:09162:1:4:4,,Karlsplatz (Stachus),Steig 4,48.138636000000,11.565360000000,0,de:09162:1,0,4,2
de:09162:1:5:5,,Karlsplatz (Stachus),Steig 5,48.139289000000,11.564606000000,0,,0,5,2
de:09162:1:6:6,,Karlsplatz (Stachus),Steig 6+8,48.138792000000,11.565648000000,0,,0,6,2
de:09162:1:6:8,,Karlsplatz (Stachus),Steig 6+8,48.138540000000,11.565603000000,0,,0,8,2
de:09162:1:7:7,,Karlsplatz (Stachus),Steig 7,48.138960000000,11.564902000000,0,,0,7,2
de:09162:1:8:10,,Karlsplatz (Stachus),Steig 9/10,48.139727000000,11.564938000000,0,,0,10,2
de:09162:1:8:93,,Karlsplatz (Stachus),Steig 9/10,48.139709000000,11.564983000000,0,,0,93,2
de:09162:1:8:9,,Karlsplatz (Stachus),Steig 9/10,48.139949000000,11.564588000000,0,,0,9,2
de:09162:1:9:94,,Karlsplatz (Stachus),Steig 14/94,48.140015000000,11.564147000000,0,,0,94,2
de:09162:1:9:14,,Karlsplatz (Stachus),Steig 14/94,48.140033000000,11.564094000000,0,,0,14,2
de:09162:1:40:81,,Karlsplatz (Stachus),Gleis 1+2,48.139379000000,11.565701000000,0,de:09162:1,0,81,3
de:09162:1:40:82,,Karlsplatz (Stachus),Gleis 1+2,48.139481000000,11.565836000000,0,de:09162:1,0,82,3
de:09162:1:38:38,,Karlsplatz (Stachus),Ungültig St. 38,48.139194000000,11.564552000000,0,de:09162:1,0,38,2
de:09162:1:31:41,,Karlsplatz (Stachus),Steig 41,48.139385000000,11.564803000000,0,,0,41,2
de:09162:1:32:72,,Karlsplatz (Stachus),Steig 72,48.140105000000,11.565657000000,0,,0,72,2
de:09162:1:33:73,,Karlsplatz (Stachus),DEAKTIV,48.136190000000,11.564615000000,0,de:09162:1,0,73,2
de:09162:1:34:74,,Karlsplatz (Stachus),"Veraltet, Steig 74",48.137323000000,11.563707000000,0,,0,74,2
de:09162:1:35:75,,Karlsplatz (Stachus),Steig 75,48.139523000000,11.565091000000,0,,0,75,2
de:09162:1:41:71,,Karlsplatz (Stachus),"Veraltet, Steig 71",48.139739000000,11.566231000000,0,de:09162:1,0,71,2
de:09162:1:51:51,,Karlsplatz (Stachus),Steig 51,48.140434000000,11.567148000000,0,de:09162:1,0,51,7
de:09162:1:52:52,,Karlsplatz (Stachus),Steig 52,48.140165000000,11.566878000000,0,de:09162:1,0,52,7
de:09162:2:31:7,,Marienplatz,Steig 71,48.136532000000,11.577398000000,0,,0,7,2
de:09162:2:31:71,,Marienplatz,Steig 71,48.136400000000,11.577793000000,0,,0,71,2
de:09162:2:41:81,,Marienplatz,Gleis 1 > OB,48.137287000000,11.574658000000,0,de:09162:2_G,0,81,4
de:09162:2:42:82,,Marienplatz,Gleis 2 > PBF,48.137323000000,11.574613000000,0,de:09162:2_G,0,82,3
de:09162:2:51:51,,Marienplatz,51,48.137719000000,11.576364000000,0,de:09162:2_G,0,51,8
de:09162:2:52:52,,Marienplatz,52,48.137911000000,11.575152000000,0,de:09162:2_G,0,52,8
de:09162:3:2:1,,Isartor,Steig 1+2,48.133306000000,11.583210000000,0,de:09162:3_G,0,1,2
de:09162:3:2:2,,Isartor,Steig 1+2,48.133576000000,11.583111000000,0,de:09162:3_G,0,2,2
de:09162:3:3:3,,Isartor,Steig 3+4,48.134050000000,11.583515000000,0,,0,3,2
de:09162:3:3:4,,Isartor,Steig 3+4,48.134116000000,11.583192000000,0,,0,4,2
de:09162:3:40:81,,Isartor,Gleis 1+2,48.134212000000,11.583030000000,0,de:09162:3_G,0,81,4
de:09162:3:40:82,,Isartor,Gleis 1+2,48.134284000000,11.583147000000,0,de:09162:3_G,0,82,4
de:09162:3:31:41,,Isartor,Steig 41,48.133396000000,11.583075000000,0,,0,41,2
de:09162:3:32:42,,Isartor,Steig 42,48.133540000000,11.583290000000,0,,0,42,2
de:09162:4:2:1,,Rosenheimer Platz,Steig 1+2,48.128852000000,11.594124000000,0,de:09162:4_G,0,1,2
de:09162:4:2:2,,Rosenheimer Platz,Steig 1+2,48.128834000000,11.593989000000,0,de:09162:4_G,0,2,2
de:09162:4:11:11,,Rosenheimer Platz,Steig 11 SEV S-Bahn,48.129080000000,11.593477000000,0,,0,11,2
de:09162:4:40:81,,Rosenheimer Platz,Steige S-Bahn,48.129259000000,11.592840000000,0,de:09162:4_G,0,81,4
de:09162:4:40:82,,Rosenheimer Platz,Steige S-Bahn,48.129349000000,11.592974000000,0,de:09162:4_G,0,82,4
de:09162:4:61:61,,Rosenheimer Platz,Steig 61 SEV Ri. OB,48.128996000000,11.593055000000,0,,0,61,2
de:09162:4:31:21,,Rosenheimer Platz,Steig 21,48.128804000000,11.594232000000,0,,0,21,2
de:09162:4:32:22,,Rosenheimer Platz,Steig 22,48.128366000000,11.593657000000,0,,0,22,2
de:09162:4:34:74,,Rosenheimer Platz,Steig 74,48.128330000000,11.594133000000,0,,0,74,2
de:09162:5:3:11,,Ostbahnhof,Busplatte,48.128246000000,11.604392000000,0,,0,11,2
de:09162:5:3:2,,Ostbahnhof,Busplatte,48.127934000000,11.603943000000,0,,0,2,2
de:09162:5:3:3,,Ostbahnhof,Busplatte,48.127994000000,11.603862000000,0,,0,3,2
de:09162:5:3:5,,Ostbahnhof,Busplatte,48.127730000000,11.603655000000,0,,0,5,2
de:09162:5:3:6,,Ostbahnhof,Busplatte,48.128294000000,11.604329000000,0,,0,6,2
de:09162:5:3:7,,Ostbahnhof,Busplatte,48.127796000000,11.603565000000,0,,0,7,2
de:09162:5:8:8,,Ostbahnhof,Steig 8+9,48.128714000000,11.603628000000,0,,0,8,2
de:09162:5:8:9,,Ostbahnhof,Steig 8+9,48.128756000000,11.603395000000,0,,0,9,2
de:09162:5:12:12,,Ostbahnhof,Veraltet,48.128822000000,11.604554000000,0,,0,12,2
de:09162:5:13:13,,Ostbahnhof,Veraltet,48.128720000000,11.604796000000,0,,0,13,2
de:09162:5:14:14,,Ostbahnhof,Veraltet,48.127485000000,11.602559000000,0,,0,14,2
de:09162:5:15:15,,Ostbahnhof,Steig 15,48.127353000000,11.602856000000,0,,0,15,2
de:09162:5:41:81,,Ostbahnhof,Gleis 1+2,48.127712000000,11.604850000000,0,de:09162:5_G,0,81,5
de:09162:5:41:82,,Ostbahnhof,Gleis 1+2,48.127629000000,11.604949000000,0,de:09162:5_G,0,82,5
de:09162:5:43:83,,Ostbahnhof,Gleis 3+4,48.127587000000,11.605012000000,0,de:09162:5_G,0,83,5
de:09162:5:43:84,,Ostbahnhof,Gleis 3+4,48.127521000000,11.605155000000,0,de:09162:5_G,0,84,5
de:09162:5:45:85,,Ostbahnhof,Gleis 5+6,48.127491000000,11.605209000000,0,de:09162:5_G,0,85,5
de:09162:5:45:86,,Ostbahnhof,Gleis 5+6,48.127419000000,11.605353000000,0,de:09162:5_G,0,86,5
de:09162:5:47:87,,Ostbahnhof,Gleis 7+8,48.127389000000,11.605407000000,0,de:09162:5_G,0,87,5
de:09162:5:47:88,,Ostbahnhof,Gleis 7+8,48.127305000000,11.605533000000,0,de:09162:5_G,0,88,5
de:09162:5:48:91,,Ostbahnhof,Gleis 11+12,48.127371000000,11.605910000000,0,de:09162:5_G,0,91,5
de:09162:5:48:92,,Ostbahnhof,Gleis 11+12,48.127293000000,11.606036000000,0,de:09162:5_G,0,92,5
de:09162:5:49:93,,Ostbahnhof,Gleis 13+14,48.127269000000,11.606090000000,0,de:09162:5_G,0,93,5
de:09162:5:49:94,,Ostbahnhof,Gleis 13+14,48.127191000000,11.606198000000,0,de:09162:5_G,0,94,5
de:09162:5:51:51,,Ostbahnhof,Steig 51+52,48.128054000000,11.603709000000,0,de:09162:5_G,0,51,4
de:09162:5:51:52,,Ostbahnhof,Steig 51+52,48.128054000000,11.603565000000,0,de:09162:5_G,0,52,4
de:09162:5:31:71,,Ostbahnhof,Steig 71,48.128900000000,11.602496000000,0,,0,71,2
de:09162:5:32:72,,Ostbahnhof,Steig 72,48.128978000000,11.602640000000,0,,0,72,2
de:09162:5:33:73,,Ostbahnhof,"Veraltet, Steig 73",48.128072000000,11.603305000000,0,,0,73,2
de:09162:5:71,,Ostbahnhof,Auf Nord Gl 1+2,48.128018000000,11.605416000000,3,de:09162:5_G,0,,1
de:09162:5:72,,Ostbahnhof,Auf Süd Gl 1+2,48.127323000000,11.604374000000,3,de:09162:5_G,0,,1
de:09162:5:73,,Ostbahnhof,Auf Nord Gl 3+4,48.127898000000,11.605596000000,3,de:09162:5_G,0,,1
de:09162:5:74,,Ostbahnhof,Auf Süd Gl 3+4,48.127197000000,11.604554000000,3,de:09162:5_G,0,,1
de:09162:5:80,,Ostbahnhof,DB-Reisezentrum,48.128000000000,11.604949000000,3,de:09162:5_G,0,,1
de:09162:5:81,,Ostbahnhof,Tunnel DB S-Bahn,48.127473000000,11.604140000000,3,de:09162:5_G,0,,1
de:09162:5:82,,Ostbahnhof,Sperre Süd,48.127563000000,11.603691000000,3,de:09162:5_G,0,,1
de:09162:5:87,,Ostbahnhof,Sperre Nord,48.128648000000,11.603601000000,3,de:09162:5_G,0,,1
de:09162:5:90,,Ostbahnhof,OB Fahrerraum,48.127988000000,11.603943000000,3,de:09162:5_G,0,,2
de:09162:5:91,,Ostbahnhof,Lift Tram,48.128624000000,11.603601000000,2,de:09162:5_G,0,,2
de:09162:5:92,,Ostbahnhof,Lift Sperre,48.128624000000,11.603601000000,3,de:09162:5_G,0,,1
de:09162:6:2:1,,"Hauptbahnhof (S, U, Bus, Tram)",Steig 1+2+5,48.140213000000,11.561183000000,0,de:09162:6,0,1,2
de:09162:6:2:2,,"Hauptbahnhof (S, U, Bus, Tram)",Steig 1+2+5,48.139775000000,11.560958000000,0,de:09162:6,0,2,2
de:09162:6:3:3,,"Hauptbahnhof (S, U, Bus, Tram)",Steig 3,48.140189000000,11.560851000000,0,,0,3,2
de:09162:6:4:4,,"Hauptbahnhof (S, U, Bus, Tram)",Steig 4,48.140746000000,11.560976000000,0,,0,4,2
de:09162:6:40:81,,"Hauptbahnhof (S, U, Bus, Tram)",Steige S-Bahn,48.141220000000,11.560024000000,0,de:09162:6,0,81,4
de:09162:6:40:82,,"Hauptbahnhof (S, U, Bus, Tram)",Steige S-Bahn,48.141310000000,11.560042000000,0,de:09162:6,0,82,4
de:09162:6:32:72,,"Hauptbahnhof (S, U, Bus, Tram)",Veraltet,48.139439000000,11.561668000000,0,,0,72,2
de:09162:6:52:54,,"Hauptbahnhof (S, U, Bus, Tram)",Steig 52+54,48.140045000000,11.560887000000,0,de:09162:6,0,54,8
de:09162:6:52:52,,"Hauptbahnhof (S, U, Bus, Tram)",Steig 52+54,48.140033000000,11.561012000000,0,de:09162:6,0,52,8
de:09162:6:51:51,,"Hauptbahnhof (S, U, Bus, Tram)",Steig 51+53,48.140027000000,11.561120000000,0,de:09162:6,0,51,8
de:09162:6:51:53,,"Hauptbahnhof (S, U, Bus, Tram)",Steig 51+53,48.140027000000,11.561246000000,0,de:09162:6,0,53,8
de:09162:6:55:56,,"Hauptbahnhof (S, U, Bus, Tram)",Steig 55+56,48.139259000000,11.559979000000,0,de:09162:6,0,56,4
de:09162:6:55:55,,"Hauptbahnhof (S, U, Bus, Tram)",Steig 55+56,48.139349000000,11.559970000000,0,de:09162:6,0,55,4
de:09162:6:31:41,,"Hauptbahnhof (S, U, Bus, Tram)",Steig 41,48.141250000000,11.561408000000,0,,0,41,2
de:09162:6:34:74,,"Hauptbahnhof (S, U, Bus, Tram)",Steig 74,48.140920000000,11.561803000000,0,,0,74,2
de:09162:6:81,,"Hauptbahnhof (S, U, Bus, Tram)",ZwAb S-Bahn,48.141358000000,11.559818000000,3,de:09162:6,0,,1
de:09162:6:82,,"Hauptbahnhof (S, U, Bus, Tram)",ZwAb HBS U4/5,48.139236000000,11.559153000000,3,de:09162:6,0,,1
de:09162:6:83,,"Hauptbahnhof (S, U, Bus, Tram)",ZwAb Süd U1/2,48.139727000000,11.561066000000,3,de:09162:6,0,,1
de:09162:6:80,,"Hauptbahnhof (S, U, Bus, Tram)",ZwAuf Starnberger,48.141651000000,11.558416000000,3,de:09162:6,0,,1
de:09162:6:85,,"Hauptbahnhof (S, U, Bus, Tram)",Vert Nord S> U1/2,48.140716000000,11.561183000000,3,de:09162:6,0,,3
de:09162:6:86,,"Hauptbahnhof (S, U, Bus, Tram)",ZwAb Nord U1/2,48.140351000000,11.561111000000,3,de:09162:6,0,,1
de:09162:6:84,,"Hauptbahnhof (S, U, Bus, Tram)",ZwVert S-Bahn Ost,48.141142000000,11.560788000000,3,de:09162:6,0,,1
de:09162:7:2:1,,Hackerbrücke,Steig 1+2,48.143599000000,11.548418000000,0,de:09162:7,0,1,2
de:09162:7:2:2,,Hackerbrücke,Steig 1+2,48.143707000000,11.548265000000,0,de:09162:7,0,2,2
de:09162:7:3:3,,Hackerbrücke,Steig 3,48.143486000000,11.550529000000,0,,0,3,2
de:09162:7:40:81,,Hackerbrücke,Steige S-Bahn,48.141933000000,11.548238000000,0,,0,81,1
de:09162:7:40:82,,Hackerbrücke,Steige S-Bahn,48.142053000000,11.548265000000,0,,0,82,1
de:09162:7:31:41,,Hackerbrücke,Steig 41,48.143342000000,11.549253000000,0,,0,41,2
de:09162:7:32:42,,Hackerbrücke,Steig 42,48.143797000000,11.548283000000,0,,0,42,2
de:09162:7:33:73,,Hackerbrücke,Steig 73,48.143336000000,11.548625000000,0,,0,73,2
de:09162:8:1:1,,Donnersbergerbrücke,Steig 1,48.142670000000,11.534422000000,0,,0,1,6
de:09162:8:3:3,,Donnersbergerbrücke,Steig 3,48.142532000000,11.534898000000,0,,0,3,6
de:09162:8:41:81,,Donnersbergerbrücke,Gleis 81+82,48.142808000000,11.537099000000,0,de:09162:8_G,0,81,2
de:09162:8:41:82,,Donnersbergerbrücke,Gleis 81+82,48.142730000000,11.537108000000,0,de:09162:8_G,0,82,2
de:09162:8:43:83,,Donnersbergerbrücke,Gleis 83+84,48.142646000000,11.537099000000,0,de:09162:8_G,0,83,2
de:09162:8:43:84,,Donnersbergerbrücke,Gleis 83+84,48.142550000000,11.537108000000,0,de:09162:8_G,0,84,2
de:09162:9:2:2,,Laim,Steig 2,48.143575000000,11.503430000000,0,,0,2,2
de:09162:9:3:1,,Laim,Steig 1+3,48.143414000000,11.502424000000,0,,0,1,2
de:09162:9:3:3,,Laim,Steig 1+3,48.143408000000,11.502101000000,0,,0,3,2
de:09162:9:4:4,,Laim,Steig 4,48.143492000000,11.502954000000,0,de:09162:9,0,4,2
de:09162:9:41:81,,Laim,Gleis 1,48.144379000000,11.503799000000,0,de:09162:9,0,81,6
de:09162:9:42:82,,Laim,Gleis 2+3,48.144373000000,11.503457000000,0,de:09162:9,0,82,6
de:09162:9:42:83,,Laim,Gleis 2+3,48.144289000000,11.503448000000,0,de:09162:9,0,83,6
de:09162:9:30:70,,Laim,Steig 70,48.142137000000,11.503349000000,0,,0,70,2
de:09162:9:31:71,,Laim,Steig 71,48.143054000000,11.503574000000,0,,0,71,2
de:09162:9:32:72,,Laim,Steig 72,48.143150000000,11.502810000000,0,,0,72,2
de:09162:9:33:73,,Laim,Steig 73,48.143611000000,11.502864000000,0,,0,73,2
de:09162:9:34:74,,Laim,Steig 74,48.142742000000,11.504023000000,0,,0,74,2
de:09162:9:35:75,,Laim,Steig 75,48.143084000000,11.501499000000,0,,0,75,2
de:09162:9:36:76,,Laim,Steig 76,48.142946000000,11.502658000000,0,,0,76,2
de:09162:10:15:15,,Pasing,Steig 15+16,48.148838000000,11.461218000000,0,,0,15,2
de:09162:10:15:16,,Pasing,Steig 15+16,48.148766000000,11.461165000000,0,,0,16,2
de:09162:10:42:82,,Pasing,Gleis 2,48.149599000000,11.461793000000,0,de:09162:10,0,82,5
de:09162:10:43:83,,Pasing,Gleis 3+4,48.149677000000,11.461650000000,0,de:09162:10,0,83,5
de:09162:10:43:84,,Pasing,Gleis 3+4,48.149779000000,11.461721000000,0,de:09162:10,0,84,5
de:09162:10:2:2,,Pasing,Steig 2+3,48.149126000000,11.460087000000,0,,0,2,2
de:09162:10:45:85,,Pasing,Gleis 5+6,48.149815000000,11.461748000000,0,de:09162:10,0,85,5
de:09162:10:45:86,,Pasing,Gleis 5+6,48.149911000000,11.461829000000,0,de:09162:10,0,86,5
de:09162:10:47:87,,Pasing,Gleis 7+8,48.149953000000,11.461856000000,0,de:09162:10,0,87,5
de:09162:10:47:88,,Pasing,Gleis 7+8,48.150049000000,11.461937000000,0,de:09162:10,0,88,5
de:09162:10:49:90,,Pasing,Gleis 9+10,48.150187000000,11.462027000000,0,de:09162:10,0,90,5
de:09162:10:49:89,,Pasing,Gleis 9+10,48.150097000000,11.461955000000,0,de:09162:10,0,89,5
de:09162:10:1:1,,Pasing,Steig 1,48.148970000000,11.460509000000,0,,0,1,2
de:09162:10:2:3,,Pasing,Steig 2+3,48.149246000000,11.459736000000,0,,0,3,2
de:09162:10:11:11,,Pasing,Steig 11,48.149701000000,11.458847000000,0,,0,11,2
de:09162:10:4:4,,Pasing,Steig 4+5,48.149365000000,11.459377000000,0,,0,4,2
de:09162:10:7:7,,Pasing,Steig 7,48.149012000000,11.459862000000,0,de:09162:10,0,7,2
de:09162:10:8:8,,Pasing,Steig 8,48.148928000000,11.459575000000,0,,0,8,2
de:09162:10:6:6,,Pasing,Steig 6,48.148796000000,11.460383000000,0,,0,6,2
de:09162:10:9:9,,Pasing,Steig 9+10,48.149198000000,11.459296000000,0,,0,9,2
de:09162:11:1:1,,Leonrodplatz,Steig 1+6,48.159751000000,11.547834000000,0,de:09162:11,0,1,2
de:09162:11:1:6,,Leonrodplatz,Steig 1+6,48.159841000000,11.548175000000,0,de:09162:11,0,6,2
de:09162:11:2:2,,Leonrodplatz,Steig 2+5,48.159182000000,11.546972000000,0,de:09162:11,0,2,2
de:09162:11:2:5,,Leonrodplatz,Steig 2+5,48.159134000000,11.546720000000,0,de:09162:11,0,5,2
de:09162:11:3:3,,Leonrodplatz,Steig 3+4,48.159721000000,11.547034000000,0,de:09162:11,0,3,2
de:09162:11:3:4,,Leonrodplatz,Steig 3+4,48.159901000000,11.546972000000,0,de:09162:11,0,4,2
de:09162:12:1:1,,Hochschule München (Lothstr.),Steig 1,48.154478000000,11.553484000000,0,de:09162:12,0,1,2
de:09162:12:2:2,,Hochschule München (Lothstr.),Steig 2,48.154094000000,11.554140000000,0,de:09162:12,0,2,2
de:09162:12:4:4,,Hochschule München (Lothstr.),Steig 4,48.154556000000,11.554499000000,0,,0,4,2
de:09162:12:5:5,,Hochschule München (Lothstr.),Steig 5,48.154687000000,11.554446000000,0,,0,5,2
de:09162:12:6:6,,Hochschule München (Lothstr.),Steig 6,48.153848000000,11.554311000000,0,,0,6,2
de:09162:13:2:1,,Sandstraße,Steig 1+2,48.150516000000,11.558102000000,0,de:09162:13,0,1,2
de:09162:13:2:2,,Sandstraße,Steig 1+2,48.150672000000,11.558138000000,0,de:09162:13,0,2,2
de:09162:13:31:21,,Sandstraße,Steig 21,48.150444000000,11.557922000000,0,,0,21,2
de:09162:13:32:22,,Sandstraße,Steig 22,48.150744000000,11.558254000000,0,,0,22,2
de:09162:15:2:1,,Karlstraße,Steig 1+2,48.144666000000,11.559629000000,0,,0,1,2
de:09162:15:2:2,,Karlstraße,Steig 1+2,48.144870000000,11.559710000000,0,,0,2,2
de:09162:15:3:3,,Karlstraße,Steig 3,48.145182000000,11.560285000000,0,,0,3,2
de:09162:16:2:1,,Lenbachplatz,Steig 1+2,48.140866000000,11.568612000000,0,de:09162:16,0,1,2
de:09162:16:2:2,,Lenbachplatz,Steig 1+2,48.140890000000,11.568405000000,0,de:09162:16,0,2,2
de:09162:16:3:3,,Lenbachplatz,Steig 3,48.140986000000,11.568136000000,0,,0,3,2
de:09162:16:4:4,,Lenbachplatz,Steig 4,48.140776000000,11.568882000000,0,,0,4,2
de:09162:17:2:NAT 1,,Nationaltheater,Steig 1+2,48.139367000000,11.578179000000,0,,0,1,2
de:09162:17:2:NAT 2,,Nationaltheater,Steig 1+2,48.139361000000,11.579131000000,0,,0,2,2
de:09162:18:2:KAM 1,,Kammerspiele,Steig 1+2,48.138588000000,11.583057000000,0,,0,1,2
de:09162:19:2:1,,Maxmonument,Steig 1+2,48.137455000000,11.588240000000,0,de:09162:19,0,1,2
de:09162:19:2:2,,Maxmonument,Steig 1+2,48.137671000000,11.588034000000,0,de:09162:19,0,2,2
de:09162:19:3:3,,Maxmonument,Steig 3,48.137257000000,11.588474000000,0,,0,3,2
de:09162:19:4:4,,Maxmonument,Steig 4,48.137857000000,11.587674000000,0,,0,4,2
de:09162:19:5:5,,Maxmonument,Steig 5,48.137317000000,11.587728000000,0,,0,5,2
de:09162:20:2:THE 1,,Marienplatz (Theatinerstraße),Steig 1+2,48.139541000000,11.575215000000,0,,0,1,2
de:09162:21:2:1,,Maximilianeum,Steig 1+2,48.136004000000,11.596029000000,0,de:09162:21,0,1,2
de:09162:23:1:1,,Grillparzerstraße,Steig 1,48.136460000000,11.610186000000,0,de:09162:23,0,1,2
de:09162:23:2:2,,Grillparzerstraße,Steig 2,48.136232000000,11.608632000000,0,de:09162:23,0,2,2
de:09162:23:3:3,,Grillparzerstraße,Steig 3,48.135794000000,11.609405000000,0,de:09162:23,0,3,2
de:09162:23:4:4,,Grillparzerstraße,Steig 4,48.135291000000,11.609863000000,0,de:09162:23,0,4,2
de:09162:23:34:74,,Grillparzerstraße,Steig 74,48.136316000000,11.609782000000,0,,0,74,2
de:09162:26:1:1,,Isartor/Zweibrückenstraße,Steig 1,48.132737000000,11.583767000000,0,,0,1,2
de:09162:29:1:1,,Landshuter Allee,Steig 1,48.151475000000,11.536677000000,0,,0,1,2
de:09162:29:2:2,,Landshuter Allee,Steig 2,48.152009000000,11.536264000000,0,,0,2,2
de:09162:30:1:1,,Poccistraße,Steig 1,48.125770000000,11.548777000000,0,,0,1,2
de:09162:30:2:2,,Poccistraße,Steig 2,48.124972000000,11.549343000000,0,,0,2,2
de:09162:30:3:3,,Poccistraße,Steig 3,48.126106000000,11.551697000000,0,,0,3,2
de:09162:30:4:4,,Poccistraße,Steig 4,48.125536000000,11.548831000000,0,,0,4,2
de:09162:30:31:71,,Poccistraße,Veraltet,48.124984000000,11.550026000000,0,,0,71,2
de:09162:30:51:51,,Poccistraße,Steig 51+52,48.125488000000,11.550412000000,0,de:09162:30,0,51,4
de:09162:30:51:52,,Poccistraße,Steig 51+52,48.125548000000,11.550322000000,0,de:09162:30,0,52,4
de:09162:31:1:1,,Hirschgarten,Steig 1,48.143384000000,11.519295000000,0,,0,1,2
de:09162:31:2:2,,Hirschgarten,Steig 2,48.143617000000,11.519645000000,0,,0,2,2
de:09162:31:40:82,,Hirschgarten,Gleis 1+2,48.143504000000,11.519142000000,0,,0,82,1
de:09162:31:60:61,,Hirschgarten,SEV DB > Pasing,48.141388000000,11.519304000000,0,,0,71,2
de:09162:31:62:62,,Hirschgarten,SEV DB > HU,48.141172000000,11.519268000000,0,,0,72,2
de:09162:34:1:1,,Nordbad,Steig 1,48.161033000000,11.562584000000,0,de:09162:34,0,1,2
de:09162:34:2:2,,Nordbad,Steig 2,48.160878000000,11.564318000000,0,de:09162:34,0,2,2
de:09162:34:3:3,,Nordbad,Steig 3,48.161375000000,11.563608000000,0,de:09162:34,0,3,2
de:09162:34:4:4,,Nordbad,Steig 4,48.160872000000,11.562881000000,0,,0,4,2
de:09162:34:35:75,,Nordbad,Steig 75,48.161297000000,11.563671000000,0,,0,75,2
de:09162:36:1:1,,Georgenstraße,Steig 1,48.155329000000,11.583704000000,0,,0,1,2
de:09162:38:2:1,,Müllerstraße,Steig 1+2,48.131640000000,11.572232000000,0,,0,1,2
de:09162:38:3:3,,Müllerstraße,Steig 3+4,48.131172000000,11.571334000000,0,,0,3,2
de:09162:40:1:1,,Goetheplatz,Steig 1+2,48.130069000000,11.558569000000,0,,0,1,2
de:09162:40:1:2,,Goetheplatz,Steig 1+2,48.130093000000,11.558380000000,0,,0,2,2
de:09162:40:3:3,,Goetheplatz,Steig 3,48.129997000000,11.559108000000,0,,0,3,2
de:09162:40:4:4,,Goetheplatz,Steig 4,48.129619000000,11.558910000000,0,,0,4,2
de:09162:40:31:71,,Goetheplatz,Steig 71,48.129122000000,11.558371000000,0,,0,71,2
de:09162:40:51:52,,Goetheplatz,Steig 51+52,48.129217000000,11.557608000000,0,de:09162:40,0,52,4
de:09162:40:51:51,,Goetheplatz,Steig 51+52,48.129157000000,11.557680000000,0,de:09162:40,0,51,4
de:09162:41:2:1,,Eduard-Schmid-Straße,Steig 1+2,48.126357000000,11.578386000000,0,,0,1,2
de:09162:42:2:2,,Mariahilfplatz,Steig 1+2,48.124163000000,11.581278000000,0,de:09162:42,0,2,2
de:09162:42:2:1,,Mariahilfplatz,Steig 1+2,48.124001000000,11.581296000000,0,de:09162:42,0,1,2
de:09162:42:3:3,,Mariahilfplatz,Steig 3,48.124163000000,11.580623000000,0,,0,3,2
de:09162:43:1:1,,Kurfürstenplatz,Steig 1+2,48.160398000000,11.574074000000,0,,0,1,2
de:09162:43:3:3,,Kurfürstenplatz,Steig 3,48.160506000000,11.574092000000,0,,0,3,2
de:09162:43:4:4,,Kurfürstenplatz,Steig 4+5,48.159907000000,11.574846000000,0,de:09162:43,0,4,2
de:09162:43:4:5,,Kurfürstenplatz,Steig 4+5,48.159997000000,11.574999000000,0,de:09162:43,0,5,2
de:09162:43:6:6,,Kurfürstenplatz,Steig 6,48.160662000000,11.574972000000,0,,0,6,2
de:09162:43:31:71,,Kurfürstenplatz,Steig 71,48.160009000000,11.575331000000,0,,0,71,2
de:09162:46:1:1,,Haidenauplatz,Steig 1+2,48.132125000000,11.609782000000,0,de:09162:46,0,1,2
de:09162:46:1:2,,Haidenauplatz,Steig 1+2,48.132059000000,11.609521000000,0,de:09162:46,0,2,2
de:09162:46:3:3,,Haidenauplatz,Steig 3+4,48.132863000000,11.610285000000,0,de:09162:46,0,3,2
de:09162:46:3:4,,Haidenauplatz,Steig 3+4,48.132737000000,11.610141000000,0,de:09162:46,0,4,2
de:09162:46:11:71,,Haidenauplatz,Steig 71,48.132059000000,11.609863000000,0,,0,71,2
de:09162:47:1:1,,Elisabethplatz,Steig 1+72,48.157876000000,11.574855000000,0,,0,1,2
de:09162:47:2:2,,Elisabethplatz,Steig 2,48.157450000000,11.575080000000,0,,0,2,2
de:09162:48:2:NOE 1,,Nordendstraße,Steig 1+2,48.154903000000,11.575484000000,0,,0,1,2
de:09162:49:1:1,,Schellingstraße,Steig 1,48.151241000000,11.573337000000,0,,0,1,2
de:09162:49:2:2,,Schellingstraße,Steig 2,48.150810000000,11.573220000000,0,,0,2,2
de:09162:50:1:1,,Sendlinger Tor,Steig 1+8,48.133528000000,11.565513000000,0,,0,1,2
de:09162:50:1:8,,Sendlinger Tor,Steig 1+8,48.133264000000,11.565827000000,0,,0,8,2
de:09162:50:2:2,,Sendlinger Tor,Steig 2,48.132947000000,11.565773000000,0,,0,2,2
de:09162:50:3:3,,Sendlinger Tor,Steig 3+5,48.133630000000,11.566196000000,0,de:09162:50,0,3,2
de:09162:50:3:5,,Sendlinger Tor,Steig 3+5,48.133792000000,11.566088000000,0,de:09162:50,0,5,2
de:09162:50:4:4,,Sendlinger Tor,Steig 4,48.133804000000,11.566223000000,0,de:09162:50,0,4,2
de:09162:50:6:6,,Sendlinger Tor,Steig 6,48.133175000000,11.565675000000,0,,0,6,2
de:09162:50:7:7,,Sendlinger Tor,Steig 7,48.134434000000,11.565657000000,0,,0,7,2
de:09162:50:9:9,,Sendlinger Tor,Steig 9,48.133612000000,11.567732000000,0,,0,9,2
de:09162:50:10:10,,Sendlinger Tor,Steig 10,48.133169000000,11.567076000000,0,,0,10,2
de:09162:50:11:11,,Sendlinger Tor,Steig 11,48.132905000000,11.565109000000,0,,0,11,2
de:09162:50:34:74,,Sendlinger Tor,Steig 74,48.133432000000,11.568513000000,0,,0,74,2
de:09162:50:35:75,,Sendlinger Tor,Steig 75,48.133744000000,11.568477000000,0,,0,75,2
de:09162:50:51:52,,Sendlinger Tor,Steig 51+52,48.133438000000,11.566519000000,0,de:09162:50,0,52,4
de:09162:50:51:51,,Sendlinger Tor,Steig 51+52,48.133366000000,11.566573000000,0,de:09162:50,0,51,4
de:09162:50:53:53,,Sendlinger Tor,Steig 53,48.133600000000,11.567363000000,0,de:09162:50,0,53,3
de:09162:50:54:54,,Sendlinger Tor,Steig 54,48.133426000000,11.566681000000,0,de:09162:50,0,54,3
de:09162:50:31:41,,Sendlinger Tor,Steig 41,48.133888000000,11.566627000000,0,,0,41,2
de:09162:50:32:42,,Sendlinger Tor,Steig 42,48.132521000000,11.567480000000,0,,0,42,2
de:09162:51:1:1,,Pinakotheken,Steig 1,48.148706000000,11.571873000000,0,,0,1,2
de:09162:51:2:2,,Pinakotheken,Steig 2,48.149192000000,11.571990000000,0,,0,2,2
de:09162:51:3:3,,Pinakotheken,Steig 3,48.149156000000,11.571433000000,0,,0,3,2
de:09162:51:4:4,,Pinakotheken,Steig 4,48.146734000000,11.570840000000,0,,0,4,2
de:09162:52:2:1,,Karolinenplatz,Steig 1+2,48.145745000000,11.569942000000,0,,0,1,2
de:09162:53:2:OTO 1,,Ottostraße,Steig 1+2,48.142419000000,11.567866000000,0,,0,1,2
de:09162:53:2:OTO 2,,Ottostraße,Steig 1+2,48.142251000000,11.567687000000,0,,0,2,2
de:09162:54:1:1,,Donnersbergerstraße,Steig 1,48.146069000000,11.535329000000,0,de:09162:54,0,1,2
de:09162:54:2:2,,Donnersbergerstraße,Steig 2,48.146728000000,11.536614000000,0,,0,2,2
de:09162:54:3:3,,Donnersbergerstraße,Steig 3,48.146369000000,11.535159000000,0,de:09162:54,0,3,2
de:09162:54:4:4,,Donnersbergerstraße,Steig 4,48.146159000000,11.536605000000,0,de:09162:54,0,4,2
de:09162:54:31:41,,Donnersbergerstraße,Steig 41,48.146081000000,11.536578000000,0,,0,41,2
de:09162:55:1:1,,Hermann-Lingg-Straße,Steig 1,48.139128000000,11.551975000000,0,,0,1,2
de:09162:55:2:2,,Hermann-Lingg-Straße,Steig 2,48.138978000000,11.551382000000,0,,0,2,2
de:09162:58:1:1,,Kapuzinerplatz/Arbeitsagentur,Steig 1,48.126747000000,11.558515000000,0,,0,1,2
de:09162:59:1:1,,Kapuzinerstraße,Steig 1,48.125314000000,11.561542000000,0,,0,1,2
de:09162:59:2:2,,Kapuzinerstraße,Steig 2,48.125212000000,11.561488000000,0,de:09162:59,0,2,2
de:09162:59:3:3,,Kapuzinerstraße,Steig 3,48.124918000000,11.561569000000,0,,0,3,2
de:09162:60:1:1,,Odeonsplatz,Steig 1,48.143090000000,11.577981000000,0,,0,1,2
de:09162:60:2:2,,Odeonsplatz,Steig 2,48.142838000000,11.577892000000,0,,0,2,2
de:09162:60:3:3,,Odeonsplatz,Steig 3,48.143018000000,11.577658000000,0,,0,3,2
de:09162:60:51:52,,Odeonsplatz,Steig 51+52,48.143414000000,11.577937000000,0,de:09162:60_G,0,52,4
de:09162:60:51:51,,Odeonsplatz,Steig 51+52,48.143384000000,11.578107000000,0,de:09162:60_G,0,51,4
de:09162:60:53:53,,Odeonsplatz,53,48.142922000000,11.576400000000,0,de:09162:60_G,0,53,3
de:09162:60:54:54,,Odeonsplatz,54,48.142718000000,11.576320000000,0,de:09162:60_G,0,54,3
de:09162:61:1:1,,Baldeplatz,Steig 1,48.123425000000,11.567076000000,0,de:09162:61,0,1,2
de:09162:61:2:2,,Baldeplatz,Steig 2,48.123239000000,11.567022000000,0,,0,2,2
de:09162:61:3:3,,Baldeplatz,Steig 3,48.122814000000,11.566950000000,0,,0,3,2
de:09162:61:4:4,,Baldeplatz,Steig 4,48.123779000000,11.567022000000,0,,0,4,2
de:09162:62:1:1,,Claude-Lorrain-Straße,Steig 1,48.121218000000,11.571253000000,0,,0,1,2
de:09162:62:2:2,,Claude-Lorrain-Straße,Steig 2,48.121116000000,11.571020000000,0,,0,2,2
de:09162:63:1:1,,Humboldtstraße,Steig 1,48.119167000000,11.574999000000,0,,0,1,2
de:09162:63:2:2,,Humboldtstraße,Steig 2,48.119917000000,11.575781000000,0,,0,2,2
de:09162:63:4:4,,Humboldtstraße,Steig 4,48.119785000000,11.574801000000,0,,0,4,2
de:09162:64:2:1,,Barthstraße,Steig 1+2,48.140321000000,11.530443000000,0,de:09162:64,0,1,2
de:09162:64:2:2,,Barthstraße,Steig 1+2,48.140273000000,11.530011000000,0,de:09162:64,0,2,2
de:09162:64:31:21,,Barthstraße,Steig 21,48.140440000000,11.530020000000,0,,0,21,2
de:09162:64:32:22,,Barthstraße,Steig 22,48.140171000000,11.529931000000,0,,0,22,2
de:09162:65:2:1,,Trappentreustraße,Steig 1+2,48.139931000000,11.535267000000,0,de:09162:65,0,1,2
de:09162:65:2:2,,Trappentreustraße,Steig 1+2,48.140021000000,11.535132000000,0,de:09162:65,0,2,2
de:09162:65:3:3,,Trappentreustraße,Steig 3,48.139439000000,11.533964000000,0,,0,3,2
de:09162:65:4:4,,Trappentreustraße,Steig 4,48.139709000000,11.534808000000,0,,0,4,2
de:09162:65:5:5,,Trappentreustraße,Steig 5,48.140267000000,11.533102000000,0,,0,5,2
de:09162:65:6:6,,Trappentreustraße,Steig 6,48.140440000000,11.534377000000,0,,0,6,2
de:09162:67:1:1,,Holzapfelstraße,Steig 1,48.139319000000,11.546720000000,0,de:09162:67,0,1,2
de:09162:67:2:2,,Holzapfelstraße,Steig 2,48.139140000000,11.547636000000,0,de:09162:67,0,2,2
de:09162:67:31:21,,Holzapfelstraße,Steig 21,48.139403000000,11.546747000000,0,,0,21,2
de:09162:67:32:22,,Holzapfelstraße,Steig 22,48.139098000000,11.547358000000,0,,0,22,2
de:09162:67:33:43,,Holzapfelstraße,Steig 43,48.139301000000,11.547457000000,0,,0,43,2
de:09162:68:2:1,,Reichenbachplatz,Steig 1+2,48.133264000000,11.576733000000,0,,0,1,2
de:09162:68:2:2,,Reichenbachplatz,Steig 1+2,48.133312000000,11.576508000000,0,,0,2,2
de:09162:70:1:1,,Universität,Bus Steig 1,48.149168000000,11.580119000000,0,,0,1,2
de:09162:70:2:2,,Universität,Bus Steig 2,48.149036000000,11.580182000000,0,,0,2,2
de:09162:70:3:3,,Universität,Bus Steig 3,48.148820000000,11.580299000000,0,,0,3,2
de:09162:70:4:4,,Universität,Bus Steig 4,48.149407000000,11.580955000000,0,,0,4,2
de:09162:70:19:71,,Universität,Steig 71,48.150972000000,11.581251000000,0,,0,71,2
de:09162:70:30:40,,Universität,Steig 40,48.150900000000,11.582024000000,0,,0,40,2
de:09162:70:33:73,,Universität,Veraltet,48.148281000000,11.580048000000,0,,0,73,2
de:09162:70:34:74,,Universität,Steig 74,48.149365000000,11.579428000000,0,,0,74,2
de:09162:70:51:51,,Universität,Steig 51+52,48.150055000000,11.581045000000,0,de:09162:70,0,51,4
de:09162:70:51:52,,Universität,Steig 51+52,48.150073000000,11.580946000000,0,de:09162:70,0,52,4
de:09162:70:32:72,,Universität,Steig 72,48.149222000000,11.579482000000,0,,0,72,2
de:09162:73:1:1,,Friedensengel/Villa Stuck,Steig 1,48.140470000000,11.600053000000,0,,0,1,2
de:09162:73:2:2,,Friedensengel/Villa Stuck,Steig 2,48.140938000000,11.600143000000,0,,0,2,2
de:09162:73:4:4,,Friedensengel/Villa Stuck,Steig 4,48.140656000000,11.600736000000,0,,0,4,2
de:09162:74:1:1,,Holbeinstraße,Steig 1,48.143336000000,11.601230000000,0,,0,1,2
de:09162:75:1:1,,Sternwartstraße,Steig 1,48.146393000000,11.603592000000,0,,0,1,2
de:09162:75:2:2,,Sternwartstraße,Steig 2,48.145997000000,11.603179000000,0,,0,2,2
de:09162:76:2:1,,Herkomerplatz,Steig 1+2,48.150858000000,11.609045000000,0,de:09162:76,0,1,2
de:09162:76:2:2,,Herkomerplatz,Steig 1+2,48.150900000000,11.608587000000,0,de:09162:76,0,2,2
de:09162:76:3:3,,Herkomerplatz,Steig 3,48.150768000000,11.609045000000,0,,0,3,2
de:09162:76:4:4,,Herkomerplatz,Steig 4,48.150492000000,11.608830000000,0,,0,4,2
de:09162:76:5:5,,Herkomerplatz,Steig 5,48.150738000000,11.609674000000,0,,0,5,2
de:09162:76:34:74,,Herkomerplatz,Steig 74,48.150528000000,11.607689000000,0,,0,74,2
de:09162:76:31:71,,Herkomerplatz,Steig 71,48.149773000000,11.610087000000,0,,0,71,2
de:09162:76:32:72,,Herkomerplatz,Steig 72,48.151205000000,11.609899000000,0,,0,72,2
de:09162:77:1:1,,Mauerkircherstraße,Steig 1,48.148778000000,11.601239000000,0,,0,1,2
de:09162:77:2:2,,Mauerkircherstraße,Steig 2,48.148892000000,11.600215000000,0,,0,2,2
de:09162:78:2:1,,Tivolistraße,Steig 1+2,48.149821000000,11.596289000000,0,,0,1,2
de:09162:78:2:2,,Tivolistraße,Steig 1+2,48.149821000000,11.596127000000,0,,0,2,2
de:09162:78:4:4,,Tivolistraße,Steig 4,48.150282000000,11.596388000000,0,,0,4,2
de:09162:80:1:1,,Giselastraße,Steig 1,48.157079000000,11.585087000000,0,,0,1,2
de:09162:80:2:2,,Giselastraße,Steig 2,48.157234000000,11.584800000000,0,,0,2,2
de:09162:80:31:41,,Giselastraße,Steig 41,48.157468000000,11.584719000000,0,,0,41,2
de:09162:80:32:42,,Giselastraße,Steig 42,48.157025000000,11.584189000000,0,,0,42,2
de:09162:80:33:73,,Giselastraße,Veraltet,48.157420000000,11.584467000000,0,,0,73,2
de:09162:80:34:44,,Giselastraße,Steig 44,48.156455000000,11.584252000000,0,,0,44,2
de:09162:80:51:51,,Giselastraße,Steig 51+52,48.156515000000,11.584045000000,0,de:09162:80,0,51,4
de:09162:80:51:52,,Giselastraße,Steig 51+52,48.156533000000,11.583946000000,0,de:09162:80,0,52,4
de:09162:84:2:1,,Mariannenplatz,Steig 1+2,48.135237000000,11.586659000000,0,,0,1,2
de:09162:84:2:2,,Mariannenplatz,Steig 1+2,48.135231000000,11.586911000000,0,,0,2,2
de:09162:85:1:1,,Kazmairstraße,Steig 1,48.134895000000,11.534467000000,0,,0,1,2
de:09162:85:2:2,,Kazmairstraße,Steig 2,48.135261000000,11.534063000000,0,,0,2,2
de:09162:85:3:3,,Kazmairstraße,Steig 3,48.134805000000,11.533937000000,0,,0,3,2
de:09162:88:2:1,,Wörthstraße,Steig 1+2,48.131754000000,11.598229000000,0,,0,1,2
de:09162:88:2:2,,Wörthstraße,Steig 1+2,48.132011000000,11.598104000000,0,,0,2,2
de:09162:89:1:1,,Orleansstraße,Steig 1,48.125536000000,11.599757000000,0,de:09162:89,0,1,2
de:09162:89:2:2,,Orleansstraße,Steig 2,48.125182000000,11.599972000000,0,,0,2,2
de:09162:89:3:3,,Orleansstraße,Steig 3,48.125626000000,11.600197000000,0,,0,3,2
de:09162:89:4:4,,Orleansstraße,Steig 4,48.125098000000,11.599002000000,0,,0,4,2
de:09162:90:1:1,,Holzkirchner Bahnhof,Steig 1,48.139104000000,11.555560000000,0,,0,1,2
de:09162:90:2:2,,Holzkirchner Bahnhof,Steig 2,48.139212000000,11.554661000000,0,,0,2,2
de:09162:90:3:3,,Holzkirchner Bahnhof,Steig 3,48.138888000000,11.555820000000,0,,0,3,2
de:09162:90:4:4,,Holzkirchner Bahnhof,Steig 4,48.138870000000,11.556072000000,0,,0,4,2
de:09162:91:2:1,,Bundesfinanzhof,Steig 1+2,48.148430000000,11.605596000000,0,,0,1,2
de:09162:92:3:KUP 1,,Kustermannpark,,48.124181000000,11.601293000000,0,,0,,
de:09162:95:1:1,,Technische Universität,Steig 1,48.149587000000,11.566169000000,0,,0,1,2
de:09162:95:2:2,,Technische Universität,Steig 2,48.148101000000,11.566106000000,0,,0,2,2
de:09162:100:1:1,,München Hbf,Bussteige HBN 1-3,48.141304000000,11.559126000000,0,,0,1,2
de:09162:100:1:2,,München Hbf,Bussteige HBN 1-3,48.141376000000,11.558793000000,0,,0,2,2
de:09162:100:1:3,,München Hbf,Bussteige HBN 1-3,48.141471000000,11.558847000000,0,,0,3,2
de:09162:100:5:5,,München Hbf,Gleis 5-6,48.139853000000,11.553610000000,0,de:09162:100_G,0,5,5
de:09162:100:5:6,,München Hbf,Gleis 5-6,48.139937000000,11.553673000000,0,de:09162:100_G,0,6,5
de:09162:100:5:7,,München Hbf,Gleis 7-8,48.139967000000,11.553700000000,0,de:09162:100_G,0,7,5
de:09162:100:5:8,,München Hbf,Gleis 7-8,48.140057000000,11.553736000000,0,de:09162:100_G,0,8,5
de:09162:100:5:10,,München Hbf,Gleis 9-10,48.140183000000,11.553799000000,0,de:09162:100_G,0,10,5
de:09162:100:5:9,,München Hbf,Gleis 9-10,48.140099000000,11.553754000000,0,de:09162:100_G,0,9,5
de:09162:100:11:11,,München Hbf,Gleis 11,48.139871000000,11.557760000000,0,de:09162:100_G,0,11,5
de:09162:100:11:12,,München Hbf,Gleis 12-13,48.139907000000,11.557769000000,0,de:09162:100_G,0,12,5
de:09162:100:11:13,,München Hbf,Gleis 12-13,48.140015000000,11.557787000000,0,de:09162:100_G,0,13,5
de:09162:100:11:14,,München Hbf,Gleis 14-15,48.140051000000,11.557787000000,0,de:09162:100_G,0,14,5
de:09162:100:11:15,,München Hbf,Gleis 14-15,48.140165000000,11.557841000000,0,de:09162:100_G,0,15,5
de:09162:100:16:16,,München Hbf,Gleis 16-17,48.140201000000,11.557850000000,0,de:09162:100_G,0,16,5
de:09162:100:16:17,,München Hbf,Gleis 16-17,48.140315000000,11.557895000000,0,de:09162:100_G,0,17,5
de:09162:100:16:18,,München Hbf,Gleis 18-19,48.140356000000,11.557904000000,0,de:09162:100_G,0,18,5
de:09162:100:16:19,,München Hbf,Gleis 18-19,48.140476000000,11.557931000000,0,de:09162:100_G,0,19,5
de:09162:100:16:20,,München Hbf,Gleis 20-21,48.140524000000,11.557931000000,0,de:09162:100_G,0,20,5
de:09162:100:16:21,,München Hbf,Gleis 20-21,48.140632000000,11.557940000000,0,de:09162:100_G,0,21,5
de:09162:100:22:22,,München Hbf,Gleis 22-23,48.140674000000,11.557940000000,0,de:09162:100_G,0,22,5
de:09162:100:22:23,,München Hbf,Gleis 22-23,48.140794000000,11.557958000000,0,de:09162:100_G,0,23,5
de:09162:100:22:24,,München Hbf,Gleis 24-25,48.140830000000,11.557949000000,0,de:09162:100_G,0,24,5
de:09162:100:22:25,,München Hbf,Gleis 24-25,48.140944000000,11.557958000000,0,de:09162:100_G,0,25,5
de:09162:100:22:26,,München Hbf,Gl 26 /Vert.327-396,48.140974000000,11.557967000000,0,de:09162:100_G,0,26,5
de:09162:100:27:27,,München Hbf,Gleis 27-28,48.141190000000,11.556314000000,0,de:09162:100_G,0,27,5
de:09162:100:27:28,,München Hbf,Gleis 27-28,48.141268000000,11.556323000000,0,de:09162:100_G,0,28,5
de:09162:100:27:29,,München Hbf,Gleis 29-30,48.141310000000,11.556332000000,0,de:09162:100_G,0,29,5
de:09162:100:27:30,,München Hbf,Gleis 29-30,48.141394000000,11.556341000000,0,de:09162:100_G,0,30,5
de:09162:100:27:31,,München Hbf,Gleis 31-32,48.141436000000,11.556350000000,0,de:09162:100_G,0,31,5
de:09162:100:27:32,,München Hbf,Gleis 31-32,48.141519000000,11.556377000000,0,de:09162:100_G,0,32,5
de:09162:100:27:33,,München Hbf,Gleis 33-34,48.141555000000,11.556386000000,0,de:09162:100_G,0,33,5
de:09162:100:27:34,,München Hbf,Gleis 33-34,48.141651000000,11.556404000000,0,de:09162:100_G,0,34,5
de:09162:100:27:35,,München Hbf,Gleis 35-36,48.141687000000,11.556404000000,0,de:09162:100_G,0,35,5
de:09162:100:27:36,,München Hbf,Gleis 35-36,48.141771000000,11.556413000000,0,de:09162:100_G,0,36,5
de:09162:101:2:2,,Hans-Fischer-Straße,Steig 2,48.127461000000,11.544555000000,0,,0,2,2
de:09162:102:3:GOL 1,,Gollierplatz,Steig 1+2,48.136298000000,11.534422000000,0,,0,1,2
de:09162:102:3:GOL 2,,Gollierplatz,Steig 1+2,48.136334000000,11.534225000000,0,,0,2,2
de:09162:103:1:1,,Schlörstraße,Steig 1,48.150085000000,11.537108000000,0,,0,1,2
de:09162:103:2:2,,Schlörstraße,Steig 2,48.149923000000,11.536551000000,0,,0,2,2
de:09162:104:1:2,,Albrechtstraße,Steig 1+2,48.155664000000,11.540558000000,0,de:09162:104,0,2,2
de:09162:104:1:1,,Albrechtstraße,Steig 1+2,48.155598000000,11.540207000000,0,de:09162:104,0,1,2
de:09162:105:1:1,,Fasaneriestraße,Steig 1,48.157522000000,11.543765000000,0,de:09162:105,0,1,2
de:09162:105:2:2,,Fasaneriestraße,Steig 2,48.157198000000,11.543298000000,0,de:09162:105,0,2,2
de:09162:105:31:71,,Fasaneriestraße,Steig 71,48.157576000000,11.543666000000,0,,0,71,2
de:09162:106:1:2,,Infanteriestraße,Steig 1+2,48.161405000000,11.553961000000,0,de:09162:106,0,2,2
de:09162:106:1:1,,Infanteriestraße,Steig 1+2,48.161459000000,11.553700000000,0,de:09162:106,0,1,2
de:09162:106:3:3,,Infanteriestraße,Steig 3,48.161884000000,11.553125000000,0,,0,3,2
de:09162:107:3:3,,Barbarastraße,Steig 3,48.161381000000,11.557599000000,0,,0,3,2
de:09162:107:4:4,,Barbarastraße,Steig 4,48.161471000000,11.557599000000,0,de:09162:107,0,4,2
de:09162:108:1:1,,Hohenzollernstraße,Steig 1,48.159398000000,11.585024000000,0,,0,1,2
de:09162:108:2:2,,Hohenzollernstraße,Steig 2,48.159188000000,11.585186000000,0,,0,2,2
de:09162:108:3:3,,Hohenzollernstraße,Steig 3,48.158828000000,11.585384000000,0,,0,3,2
de:09162:109:3:FRD 1,,Friedrichstraße,,48.159973000000,11.580551000000,0,,0,,
de:09162:110:1:1,,Königsplatz,Steig 1,48.146956000000,11.564462000000,0,,0,1,2
de:09162:110:2:2,,Königsplatz,Steig 2,48.145458000000,11.563662000000,0,,0,2,2
de:09162:110:3:3,,Königsplatz,Steig 3,48.146279000000,11.563303000000,0,,0,3,2
de:09162:110:4:4,,Königsplatz,Steig 4,48.146435000000,11.563393000000,0,,0,4,2
de:09162:110:51:52,,Königsplatz,Steig 51+52,48.144996000000,11.563168000000,0,de:09162:110,0,52,4
de:09162:110:51:51,,Königsplatz,Steig 51+52,48.144960000000,11.563294000000,0,de:09162:110,0,51,4
de:09162:111:2:REG 1,,Regerplatz,REG Tram,48.124403000000,11.588079000000,0,,0,1,2
de:09162:111:2:REG 2,,Regerplatz,REG Tram,48.124325000000,11.588186000000,0,,0,2,2
de:09162:111:3:REG 3,,Regerplatz,REG Bus,48.124588000000,11.589201000000,0,,0,3,2
de:09162:111:3:REG 4,,Regerplatz,REG Bus,48.124606000000,11.589381000000,0,,0,4,2
de:09162:112:1:1,,Viktualienmarkt,Steig 1,48.135183000000,11.575053000000,0,,0,1,2
de:09162:112:5:5,,Viktualienmarkt,Steig 5,48.135087000000,11.574855000000,0,,0,5,2
de:09162:113:3:BMN 1,,Blumenstraße,Steig 1+2,48.133115000000,11.573858000000,0,,0,1,2
de:09162:113:3:BMN 2,,Blumenstraße,Steig 1+2,48.133282000000,11.574002000000,0,,0,2,2
de:09162:115:3:BAA 2,,Baaderstraße,Steig 1+2,48.130069000000,11.578440000000,0,,0,2,2
de:09162:115:3:BAA 1,,Baaderstraße,Steig 1+2,48.129919000000,11.578386000000,0,,0,1,2
de:09162:124:1:1,,Von-der-Tann-Straße,Steig 1,48.145667000000,11.579167000000,0,,0,1,2
de:09162:124:2:2,,Von-der-Tann-Straße,Steig 2,48.144930000000,11.578493000000,0,,0,2,2
de:09162:124:3:3,,Von-der-Tann-Straße,Steig 3,48.144930000000,11.578817000000,0,,0,3,2
de:09162:132:1:1,,Hirschauer Straße,Steig 1,48.150978000000,11.595561000000,0,,0,1,2
de:09162:133:1:1,,Galileiplatz,Steig 1,48.144109000000,11.606728000000,0,,0,1,2
de:09162:134:3:WEH 1,,Wehrlestraße,Steig 1+2,48.148191000000,11.608165000000,0,,0,1,2
de:09162:135:3:CHT 2,,Chinesischer Turm,Steig 1+2,48.152931000000,11.593477000000,0,,0,2,2
de:09162:136:3:THI 1,,Thiemestraße,Steig 1+2,48.156587000000,11.588680000000,0,,0,1,2
de:09162:138:1:1,,Schwester-Eubulina-Platz,Steig 1,48.123521000000,11.593136000000,0,,0,1,2
de:09162:138:2:2,,Schwester-Eubulina-Platz,Steig 2,48.123371000000,11.593298000000,0,,0,2,2
de:09162:139:1:1,,Auerfeldstraße,Steig 1,48.123833000000,11.596478000000,0,,0,1,2
de:09162:140:1:1,,Hohenzollernplatz,Steig 1+2,48.161225000000,11.568172000000,0,,0,1,2
de:09162:140:1:2,,Hohenzollernplatz,Steig 1+2,48.161111000000,11.568073000000,0,,0,2,2
de:09162:140:51:52,,Hohenzollernplatz,Steig 51+52,48.162358000000,11.568711000000,0,de:09162:140,0,52,4
de:09162:140:51:51,,Hohenzollernplatz,Steig 51+52,48.162340000000,11.568810000000,0,de:09162:140,0,51,4
de:09162:140:89,,Hohenzollernplatz,Sperre Süd,48.161657000000,11.568486000000,3,de:09162:140,0,,1
de:09162:140:84,,Hohenzollernplatz,Sperre Nord,48.163017000000,11.569079000000,3,de:09162:140,0,,1
de:09162:140:67,,Hohenzollernplatz,Herzogstr Treppe,48.163221000000,11.568864000000,2,de:09162:140,0,,2
de:09162:140:68,,Hohenzollernplatz,ErichKästner FT16,48.163358000000,11.569304000000,2,de:09162:140,0,,2
de:09162:140:62,,Hohenzollernplatz,Rankestr FT11,48.161537000000,11.568675000000,2,de:09162:140,0,,2
de:09162:140:65,,Hohenzollernplatz,Mittermayrst FT13,48.161357000000,11.568360000000,2,de:09162:140,0,,2
de:09162:140:64,,Hohenzollernplatz,Hohenzollern FT12,48.161105000000,11.568360000000,2,de:09162:140,0,,2
de:09162:140:63,,Hohenzollernplatz,Tengstr Treppe,48.160980000000,11.568846000000,2,de:09162:140,0,,2
de:09162:144:1:1,,Zenettistraße,Steig 1,48.122442000000,11.558919000000,0,,0,1,2
de:09162:144:2:2,,Zenettistraße,Steig 2,48.122484000000,11.559189000000,0,,0,2,2
de:09162:150:1:1,,Fraunhoferstraße,Steig 1,48.128528000000,11.575188000000,0,,0,1,2
de:09162:150:2:2,,Fraunhoferstraße,Steig 2,48.128144000000,11.575915000000,0,,0,2,2
de:09162:150:3:3,,Fraunhoferstraße,Steig 3,48.127994000000,11.576670000000,0,,0,3,2
de:09162:150:4:4,,Fraunhoferstraße,Steig 4,48.128120000000,11.576535000000,0,,0,4,2
de:09162:150:51:52,,Fraunhoferstraße,Steig 51+52,48.129229000000,11.574253000000,0,de:09162:150,0,52,4
de:09162:150:51:51,,Fraunhoferstraße,Steig 51+52,48.129289000000,11.574361000000,0,de:09162:150,0,51,4
de:09162:151:1:1,,Corneliusbrücke,Steig 1,48.129092000000,11.579068000000,0,,0,1,2
de:09162:151:2:2,,Corneliusbrücke,Steig 2,48.129493000000,11.579428000000,0,,0,2,2
de:09162:159:1:1,,Kolumbusplatz (Nord),Steig 1,48.120577000000,11.576688000000,0,,0,1,2
de:09162:160:3:3,,Kolumbusplatz,Steig 3,48.118538000000,11.576841000000,0,,0,3,2
de:09162:160:4:4,,Kolumbusplatz,Steig 4,48.119107000000,11.576544000000,0,,0,4,2
de:09162:160:51:53,,Kolumbusplatz,Steig 51+53,48.119797000000,11.576652000000,0,de:09162:160,0,53,4
de:09162:160:51:51,,Kolumbusplatz,Steig 51+53,48.119797000000,11.576751000000,0,de:09162:160,0,51,4
de:09162:160:52:52,,Kolumbusplatz,Steig 52,48.119773000000,11.576544000000,0,de:09162:160,0,52,4
de:09162:160:71,,Kolumbusplatz,Pilgersheim FT11,48.120403000000,11.576248000000,2,de:09162:160,0,,2
de:09162:161:3:STC 1,,St.-Cajetan-Straße,Steig 1+2,48.121224000000,11.599182000000,0,,0,1,2
de:09162:162:1:1,,Kolumbusplatz / Humboldtstraße,Steig 1,48.119233000000,11.575817000000,0,,0,1,2
de:09162:170:2:1,,Stiglmaierplatz,Steig 1+2,48.147028000000,11.558668000000,0,,0,1,2
de:09162:170:2:2,,Stiglmaierplatz,Steig 1+2,48.147142000000,11.558838000000,0,,0,2,2
de:09162:170:31:41,,Stiglmaierplatz,Steig 41,48.147777000000,11.558281000000,0,,0,41,2
de:09162:170:32:42,,Stiglmaierplatz,Steig 42,48.147256000000,11.558533000000,0,,0,42,2
de:09162:170:33:43,,Stiglmaierplatz,Steig 43,48.146854000000,11.559135000000,0,,0,43,2
de:09162:170:35:75,,Stiglmaierplatz,Steig 75,48.148167000000,11.558641000000,0,,0,75,2
de:09162:170:36:76,,Stiglmaierplatz,Steig 76,48.148173000000,11.558937000000,0,,0,76,2
de:09162:170:37:77,,Stiglmaierplatz,Steig 77,48.146638000000,11.558398000000,0,,0,77,2
de:09162:170:38:78,,Stiglmaierplatz,Steig 78,48.146495000000,11.558695000000,0,,0,78,2
de:09162:170:39:79,,Stiglmaierplatz,Steig 79,48.147124000000,11.560294000000,0,,0,79,2
de:09162:170:51:51,,Stiglmaierplatz,Steig 51+52,48.147933000000,11.556979000000,0,de:09162:170,0,51,4
de:09162:170:51:52,,Stiglmaierplatz,Steig 51+52,48.147849000000,11.556943000000,0,de:09162:170,0,52,4
de:09162:170:70,,Stiglmaierplatz,Justizgebäude FT8,48.148359000000,11.555739000000,2,de:09162:170,0,,2
de:09162:190:1:1,,Rotkreuzplatz,Steig 1,48.152842000000,11.533982000000,0,,0,1,2
de:09162:190:2:2,,Rotkreuzplatz,Steig 2,48.152602000000,11.533928000000,0,,0,2,2
de:09162:190:3:3,,Rotkreuzplatz,Steig 3,48.152979000000,11.532500000000,0,,0,3,2
de:09162:190:4:4,,Rotkreuzplatz,Steig 4,48.153195000000,11.533955000000,0,,0,4,2
de:09162:190:5:5,,Rotkreuzplatz,Steig 5,48.153165000000,11.534251000000,0,,0,5,2
de:09162:190:6:6,,Rotkreuzplatz,Steig 6,48.152662000000,11.533766000000,0,,0,6,2
de:09162:190:31:71,,Rotkreuzplatz,Steig 71,48.153255000000,11.531664000000,0,,0,71,2
de:09162:190:51:51,,Rotkreuzplatz,Steig 51+52,48.154208000000,11.533012000000,0,de:09162:190,0,51,4
de:09162:190:51:52,,Rotkreuzplatz,Steig 51+52,48.154166000000,11.532877000000,0,de:09162:190,0,52,4
de:09162:190:70,,Rotkreuzplatz,Volkartstr FT10,48.155053000000,11.533030000000,2,de:09162:190,0,,2
de:09162:200:1:1,,Westfriedhof,Steig 1+3+4+7+9,48.169320000000,11.527864000000,0,de:09162:200,0,1,2
de:09162:200:1:3,,Westfriedhof,Steig 1+3+4+7+9,48.169284000000,11.528197000000,0,de:09162:200,0,3,2
de:09162:200:1:4,,Westfriedhof,Steig 1+3+4+7+9,48.169266000000,11.527873000000,0,de:09162:200,0,4,2
de:09162:200:1:7,,Westfriedhof,Steig 1+3+4+7+9,48.169338000000,11.528197000000,0,de:09162:200,0,7,2
de:09162:200:1:9,,Westfriedhof,Steig 1+3+4+7+9,48.169248000000,11.527505000000,0,de:09162:200,0,9,2
de:09162:200:2:2,,Westfriedhof,Steig 2+5,48.169859000000,11.528700000000,0,,0,2,2
de:09162:200:2:5,,Westfriedhof,Steig 2+5,48.169649000000,11.528655000000,0,,0,5,2
de:09162:200:6:6,,Westfriedhof,Steig 6,48.170302000000,11.528529000000,0,,0,6,2
de:09162:200:8:8,,Westfriedhof,Steig 8,48.169116000000,11.528709000000,0,,0,8,2
de:09162:200:51:51,,Westfriedhof,Steig 51+52,48.170135000000,11.528565000000,0,,0,51,4
de:09162:200:51:52,,Westfriedhof,Steig 51+52,48.170135000000,11.528430000000,0,,0,52,4
de:09162:200:23,,Westfriedhof,P+R Unten,48.172058000000,11.528376000000,2,de:09162:200,0,,1
de:09162:200:24,,Westfriedhof,P+R Oben,48.170500000000,11.528403000000,2,de:09162:200,0,,2
de:09162:205:2:1,,Volkartstraße,Steig 1+2,48.155263000000,11.532626000000,0,de:09162:205,0,1,2
de:09162:205:2:2,,Volkartstraße,Steig 1+2,48.155155000000,11.532572000000,0,de:09162:205,0,2,2
de:09162:207:1:1,,Winthirplatz,Steig 1,48.151973000000,11.527891000000,0,,0,1,2
de:09162:209:1:1,,Dankwartstraße,Steig 1,48.151307000000,11.523669000000,0,,0,1,2
de:09162:210:1:1,,Amalienburgstraße,Steig 1+7,48.165354000000,11.494402000000,0,de:09162:210,0,1,2
de:09162:210:1:7,,Amalienburgstraße,Steig 1+7,48.165408000000,11.494402000000,0,de:09162:210,0,7,2
de:09162:210:2:2,,Amalienburgstraße,Steig 2+4,48.165737000000,11.493028000000,0,de:09162:210,0,2,2
de:09162:210:2:4,,Amalienburgstraße,Steig 2+4,48.165743000000,11.493100000000,0,de:09162:210,0,4,2
de:09162:210:3:3,,Amalienburgstraße,Steig 3+6,48.165731000000,11.494061000000,0,de:09162:210,0,3,2
de:09162:210:3:6,,Amalienburgstraße,Steig 3+6,48.165785000000,11.494097000000,0,de:09162:210,0,6,2
de:09162:211:1:1,,Botanischer Garten,Steig 1,48.164455000000,11.502379000000,0,de:09162:211,0,1,2
de:09162:211:2:2,,Botanischer Garten,Steig 2,48.164467000000,11.502927000000,0,de:09162:211,0,2,2
de:09162:211:3:3,,Botanischer Garten,Steig 3,48.164635000000,11.502200000000,0,,0,3,2
de:09162:211:4:4,,Botanischer Garten,Steig 4,48.164305000000,11.502981000000,0,,0,4,2
de:09162:212:1:1,,Maria-Ward-Straße,Steig 1,48.164059000000,11.506224000000,0,,0,1,2
de:09162:212:2:2,,Maria-Ward-Straße,Steig 2,48.163987000000,11.506116000000,0,,0,2,2
de:09162:212:3:3,,Maria-Ward-Straße,Steig 3,48.164035000000,11.506997000000,0,,0,3,2
de:09162:212:4:4,,Maria-Ward-Straße,Steig 4,48.164341000000,11.507598000000,0,,0,4,2
de:09162:212:5:5,,Maria-Ward-Straße,Steig 5,48.163826000000,11.506152000000,0,,0,5,2
de:09162:213:2:1,,Dall'Armistraße,Steig 1+2,48.161195000000,11.511443000000,0,,0,1,2
de:09162:213:2:2,,Dall'Armistraße,Steig 1+2,48.161051000000,11.511353000000,0,,0,2,2
de:09162:214:1:1,,Schloss Nymphenburg,Steig 1,48.157941000000,11.511434000000,0,,0,1,2
de:09162:214:2:2,,Schloss Nymphenburg,Steig 2,48.159062000000,11.511515000000,0,,0,2,2
de:09162:214:3:3,,Schloss Nymphenburg,Steig 3,48.159074000000,11.511668000000,0,,0,3,2
de:09162:215:2:1,,Romanplatz,Steig 1+2,48.155718000000,11.512198000000,0,de:09162:215,0,1,2
de:09162:215:2:2,,Romanplatz,Steig 1+2,48.155658000000,11.512333000000,0,de:09162:215,0,2,2
de:09162:215:3:3,,Romanplatz,Steig 3,48.155221000000,11.511174000000,0,,0,3,2
de:09162:215:4:4,,Romanplatz,Steig 4,48.155862000000,11.511326000000,0,,0,4,2
de:09162:215:6:6,,Romanplatz,Steig 6,48.154807000000,11.511326000000,0,de:09162:215,0,6,2
de:09162:215:7:5,,Romanplatz,Steig 5+7,48.155179000000,11.511443000000,0,de:09162:215,0,5,2
de:09162:215:7:7,,Romanplatz,Steig 5+7,48.155131000000,11.511524000000,0,de:09162:215,0,7,2
de:09162:215:30:70,,Romanplatz,Steig 70,48.154034000000,11.509602000000,0,,0,70,2
de:09162:215:37:47,,Romanplatz,Steig 47,48.154945000000,11.511749000000,0,,0,47,2
de:09162:215:31:21,,Romanplatz,Steig 21,48.155568000000,11.512386000000,0,,0,21,2
de:09162:216:1:1,,Steubenplatz,Steig 1,48.149983000000,11.520849000000,0,de:09162:216,0,1,2
de:09162:216:2:2,,Steubenplatz,Steig 2,48.150259000000,11.519744000000,0,de:09162:216,0,2,2
de:09162:216:3:3,,Steubenplatz,Steig 3,48.150582000000,11.520444000000,0,,0,3,2
de:09162:216:4:4,,Steubenplatz,Steig 4,48.150534000000,11.520067000000,0,,0,4,2
de:09162:216:31:41,,Steubenplatz,Steig 41,48.149893000000,11.520822000000,0,,0,41,2
de:09162:216:32:42,,Steubenplatz,Steig 42,48.150348000000,11.519789000000,0,,0,42,2
de:09162:217:2:1,,Briefzentrum,Steig 1+2,48.149024000000,11.524397000000,0,de:09162:217,0,1,2
de:09162:217:2:2,,Briefzentrum,Steig 1+2,48.149090000000,11.524433000000,0,de:09162:217,0,2,2
de:09162:217:31:41,,Briefzentrum,Steig 41,48.148964000000,11.524343000000,0,,0,41,2
de:09162:217:32:42,,Briefzentrum,Steig 42,48.149162000000,11.524487000000,0,,0,42,2
de:09162:218:2:1,,Burghausener Straße,Steig 1+2,48.147214000000,11.529652000000,0,de:09162:218,0,1,2
de:09162:218:2:2,,Burghausener Straße,Steig 1+2,48.147286000000,11.529661000000,0,de:09162:218,0,2,2
de:09162:218:31:41,,Burghausener Straße,Steig 41,48.147148000000,11.529625000000,0,,0,41,2
de:09162:218:32:42,,Burghausener Straße,Steig 42,48.147364000000,11.529706000000,0,,0,42,2
de:09162:219:2:1,,Kriemhildenstraße,Steig 1+2,48.152224000000,11.515261000000,0,de:09162:219,0,1,2
de:09162:219:2:2,,Kriemhildenstraße,Steig 1+2,48.152278000000,11.515333000000,0,de:09162:219,0,2,2
de:09162:219:31:41,,Kriemhildenstraße,Steig 41,48.152188000000,11.515117000000,0,,0,41,2
de:09162:219:32:42,,Kriemhildenstraße,Steig 42,48.152326000000,11.515441000000,0,,0,42,2
de:09162:222:2:1,,Marsstraße,Steig 1+2,48.145014000000,11.541806000000,0,de:09162:222,0,1,2
de:09162:222:2:2,,Marsstraße,Steig 1+2,48.145092000000,11.541806000000,0,de:09162:222,0,2,2
de:09162:222:31:41,,Marsstraße,Steig 41,48.144930000000,11.541842000000,0,,0,41,2
de:09162:222:32:42,,Marsstraße,Steig 42,48.145170000000,11.541977000000,0,,0,42,2
de:09162:222:33:73,,Marsstraße,Steig 73,48.145122000000,11.541025000000,0,,0,73,2
de:09162:223:1:1,,Deroystraße,Steig 1,48.144307000000,11.545103000000,0,de:09162:223,0,1,2
de:09162:223:2:2,,Deroystraße,Steig 2,48.144265000000,11.545786000000,0,,0,2,2
de:09162:223:31:41,,Deroystraße,Steig 41,48.144223000000,11.545049000000,0,,0,41,2
de:09162:225:1:1,,Herthastraße,Steig 1,48.149216000000,11.503278000000,0,,0,1,2
de:09162:225:2:2,,Herthastraße,Steig 2,48.149641000000,11.503583000000,0,,0,2,2
de:09162:226:1:1,,Kemnatenstraße,Steig 1,48.151331000000,11.504347000000,0,,0,1,2
de:09162:227:1:1,,Hirschgartenallee,Steig 1,48.152848000000,11.507733000000,0,,0,1,2
de:09162:227:2:2,,Hirschgartenallee,Steig 2,48.152979000000,11.508470000000,0,,0,2,2
de:09162:228:5:5,,Nederlinger Straße,Steig 5,48.169374000000,11.510302000000,0,,0,5,2
de:09162:232:2:1,,Hopfenstraße,Steig 1+2,48.142323000000,11.554383000000,0,de:09162:232,0,1,2
de:09162:232:2:2,,Hopfenstraße,Steig 1+2,48.142395000000,11.554410000000,0,de:09162:232,0,2,2
de:09162:232:31:41,,Hopfenstraße,Steig 41,48.142233000000,11.554392000000,0,,0,41,2
de:09162:232:32:42,,Hopfenstraße,Steig 42,48.142455000000,11.554446000000,0,,0,42,2
de:09162:232:33:73,,Hopfenstraße,Steig 73,48.142419000000,11.553592000000,0,,0,73,2
de:09162:235:1:1,,Lustheimstraße,Steig 1,48.163856000000,11.486767000000,0,,0,1,2
de:09162:235:2:2,,Lustheimstraße,Steig 2,48.163724000000,11.485931000000,0,,0,2,2
de:09162:236:1:1,,In den Kirschen,Steig 1,48.167157000000,11.509709000000,0,,0,1,2
de:09162:236:2:2,,In den Kirschen,Steig 2,48.167265000000,11.509368000000,0,,0,2,2
de:09162:237:1:1,,Bunzlauer Platz,Steig 1,48.179073000000,11.507122000000,0,,0,1,2
de:09162:237:2:2,,Bunzlauer Platz,Steig 2,48.179270000000,11.507131000000,0,,0,2,2
de:09162:238:1:WFS 1,,Winfriedstraße,Steig 1,48.147406000000,11.503161000000,0,,0,1,2
de:09162:239:1:1,,Nederlinger Straße (West),Steig 1,48.170530000000,11.509018000000,0,,0,1,2
de:09162:239:2:2,,Nederlinger Straße (West),Steig 2,48.170860000000,11.508784000000,0,,0,2,2
de:09162:250:1:1,,Schwanthalerhöhe,Steig 1,48.133636000000,11.539659000000,0,,0,1,2
de:09162:250:2:2,,Schwanthalerhöhe,Steig 2,48.133312000000,11.539830000000,0,,0,2,2
de:09162:250:4:4,,Schwanthalerhöhe,Steig 4,48.134733000000,11.539668000000,0,,0,4,2
de:09162:250:30:70,,Schwanthalerhöhe,Steig 70,48.133115000000,11.539255000000,0,,0,70,2
de:09162:250:51:51,,Schwanthalerhöhe,Steig 51+52,48.133804000000,11.541007000000,0,de:09162:250,0,51,4
de:09162:250:51:52,,Schwanthalerhöhe,Steig 51+52,48.133732000000,11.541007000000,0,de:09162:250,0,52,4
de:09162:250:70,,Schwanthalerhöhe,Kazmairstr FT8,48.134116000000,11.539956000000,2,de:09162:250,0,,2
de:09162:280:1:1,,Laimer Platz,Steig 1+4,48.135177000000,11.499729000000,0,,0,1,2
de:09162:280:1:4,,Laimer Platz,Steig 1+4,48.135141000000,11.499388000000,0,,0,4,2
de:09162:280:2:2,,Laimer Platz,Steig 2,48.134907000000,11.503134000000,0,,0,2,2
de:09162:280:3:3,,Laimer Platz,Steig 3,48.135830000000,11.502801000000,0,,0,3,2
de:09162:280:31:41,,Laimer Platz,Steig 41,48.135483000000,11.503556000000,0,,0,41,2
de:09162:280:32:42,,Laimer Platz,Steig 42,48.135303000000,11.503574000000,0,,0,42,2
de:09162:280:51:51,,Laimer Platz,Steig 51+52,48.135483000000,11.501921000000,0,de:09162:280,0,51,4
de:09162:280:51:52,,Laimer Platz,Steig 51+52,48.135429000000,11.501921000000,0,de:09162:280,0,52,4
de:09162:300:1:1,,Moosach,Steig 1+2,48.180438000000,11.507482000000,0,,0,1,2
de:09162:300:1:2,,Moosach,Steig 1+2,48.180396000000,11.507284000000,0,,0,2,2
de:09162:300:2:12,,Moosach,Steig 12,48.180636000000,11.507356000000,0,,0,12,2
de:09162:300:3:13,,Moosach,Steig 13,48.181115000000,11.506035000000,0,,0,13,2
de:09162:300:4:14,,Moosach,Steig 14/15,48.180774000000,11.506107000000,0,,0,14,2
de:09162:300:4:15,,Moosach,Steig 14/15,48.180612000000,11.505919000000,0,,0,15,2
de:09162:300:5:16,,Moosach,Steig 16/17,48.180558000000,11.505128000000,0,,0,16,2
de:09162:300:5:17,,Moosach,Steig 16/17,48.180642000000,11.504832000000,0,,0,17,2
de:09162:300:6:6,,Moosach,Steig 6,48.181630000000,11.508784000000,0,,0,6,2
de:09162:300:7:7,,Moosach,Steig 7,48.180929000000,11.504930000000,0,,0,7,2
de:09162:300:43:83,,Moosach,Gleis 3 + 4,48.179360000000,11.505371000000,0,de:09162:300_G,0,83,5
de:09162:300:43:84,,Moosach,Gleis 3 + 4,48.179420000000,11.505272000000,0,de:09162:300_G,0,84,5
de:09162:300:45:85,,Moosach,Gleis 5,48.179450000000,11.505227000000,0,de:09162:300_G,0,85,5
de:09162:300:51:51,,Moosach,Steig 51+52,48.181001000000,11.508146000000,0,de:09162:300_G,0,51,4
de:09162:300:51:52,,Moosach,Steig 51+52,48.180935000000,11.508146000000,0,de:09162:300_G,0,52,4
de:09162:300:90,,Moosach,MO Fahrerraum Nor,48.180672000000,11.506664000000,3,de:09162:300_G,0,,1
de:09162:301:2:1,,Pelkovenstraße,Steig 1+2,48.181037000000,11.510931000000,0,,0,1,2
de:09162:301:2:2,,Pelkovenstraße,Steig 1+2,48.181109000000,11.510868000000,0,,0,2,2
de:09162:301:5:5,,Pelkovenstraße,Steig 5,48.181217000000,11.512225000000,0,,0,5,2
de:09162:301:6:6,,Pelkovenstraße,Steig 6,48.181451000000,11.513015000000,0,,0,6,2
de:09162:302:2:1,,Hugo-Troendle-Straße,Steig 1+2,48.179282000000,11.514767000000,0,de:09162:302,0,1,2
de:09162:302:2:2,,Hugo-Troendle-Straße,Steig 1+2,48.179354000000,11.514821000000,0,de:09162:302,0,2,2
de:09162:302:3:3,,Hugo-Troendle-Straße,Steig 3,48.179438000000,11.514911000000,0,,0,3,2
de:09162:302:4:4,,Hugo-Troendle-Straße,Steig 4,48.179204000000,11.514686000000,0,,0,4,2
de:09162:303:2:1,,Wintrichring,Steig 1+2,48.176024000000,11.521450000000,0,de:09162:303,0,1,2
de:09162:303:2:2,,Wintrichring,Steig 1+2,48.176095000000,11.521531000000,0,de:09162:303,0,2,2
de:09162:303:3:3,,Wintrichring,Steig 3,48.175221000000,11.521325000000,0,,0,3,2
de:09162:303:4:4,,Wintrichring,Steig 4,48.175269000000,11.520651000000,0,,0,4,2
de:09162:303:31:21,,Wintrichring,Steig 21,48.176065000000,11.521001000000,0,,0,21,2
de:09162:303:32:22,,Wintrichring,Steig 22,48.176413000000,11.521145000000,0,,0,22,2
de:09162:303:34:74,,Wintrichring,Steig 74,48.175419000000,11.523220000000,0,,0,74,2
de:09162:304:1:1,,Hanauer Straße,Steig 1+2,48.171614000000,11.528511000000,0,,0,1,2
de:09162:304:1:2,,Hanauer Straße,Steig 1+2,48.171878000000,11.528646000000,0,,0,2,2
de:09162:304:3:3,,Hanauer Straße,Steig 3,48.171908000000,11.529149000000,0,,0,3,2
de:09162:305:2:1,,Borstei,Steig 1+2,48.169488000000,11.533281000000,0,de:09162:305,0,1,2
de:09162:305:2:2,,Borstei,Steig 1+2,48.169578000000,11.533290000000,0,de:09162:305,0,2,2
de:09162:306:2:1,,Olympiapark West,Steig 1+2,48.166438000000,11.537324000000,0,de:09162:306,0,1,2
de:09162:306:2:2,,Olympiapark West,Steig 1+2,48.166534000000,11.537351000000,0,de:09162:306,0,2,2
de:09162:307:1:1,,Heideckstraße,Steig 1,48.162597000000,11.542615000000,0,de:09162:307,0,1,2
de:09162:307:2:2,,Heideckstraße,Steig 2,48.163191000000,11.541815000000,0,de:09162:307,0,2,2
de:09162:307:31:21,,Heideckstraße,Steig 21,48.162525000000,11.542525000000,0,,0,21,2
de:09162:308:2:1,,Gartenstraße,Steig 1+2,48.172004000000,11.564920000000,0,de:09162:308,0,1,2
de:09162:308:2:2,,Gartenstraße,Steig 1+2,48.172327000000,11.564929000000,0,de:09162:308,0,2,2
de:09162:308:31:21,,Gartenstraße,Steig 21,48.172315000000,11.565216000000,0,,0,21,2
de:09162:309:1:1,,Ackermannstraße,Steig 1,48.168289000000,11.565019000000,0,de:09162:309,0,1,2
de:09162:309:2:2,,Ackermannstraße,Steig 2,48.167517000000,11.564839000000,0,de:09162:309,0,2,2
de:09162:309:3:3,,Ackermannstraße,Steig 3,48.167780000000,11.565450000000,0,,0,3,2
de:09162:309:4:4,,Ackermannstraße,Steig 4,48.167924000000,11.565450000000,0,,0,4,2
de:09162:310:1:1,,Fasanerie,Steig 1,48.197518000000,11.523903000000,0,,0,1,2
de:09162:310:2:2,,Fasanerie,Steig 2,48.196393000000,11.524469000000,0,,0,2,2
de:09162:311:1:1,,Herzogstraße,Steig 1,48.163718000000,11.564318000000,0,de:09162:311,0,1,2
de:09162:311:2:2,,Herzogstraße,Steig 2,48.163197000000,11.564049000000,0,de:09162:311,0,2,2
de:09162:311:31:21,,Herzogstraße,Steig 21,48.163700000000,11.564435000000,0,,0,21,2
de:09162:312:1:1,,Georg-Brauchle-Ring,Steig 1,48.176635000000,11.528278000000,0,,0,1,2
de:09162:312:2:2,,Georg-Brauchle-Ring,Steig 2,48.176611000000,11.530002000000,0,,0,2,2
de:09162:312:4:4,,Georg-Brauchle-Ring,Steig 4,48.176880000000,11.529329000000,0,,0,4,2
de:09162:312:5:5,,Georg-Brauchle-Ring,Steig 5,48.177611000000,11.529697000000,0,,0,5,2
de:09162:312:6:6,,Georg-Brauchle-Ring,Steig 6,48.175988000000,11.529185000000,0,,0,6,2
de:09162:312:7:7,,Georg-Brauchle-Ring,Steig 7,48.176077000000,11.528933000000,0,,0,7,2
de:09162:312:8:8,,Georg-Brauchle-Ring,Steig 8,48.176239000000,11.529553000000,0,,0,8,2
de:09162:312:32:42,,Georg-Brauchle-Ring,Steig 42,48.176077000000,11.528933000000,0,,0,42,2
de:09162:312:51:51,,Georg-Brauchle-Ring,Steig 51+52,48.177192000000,11.529122000000,0,de:09162:312,0,51,4
de:09162:312:51:52,,Georg-Brauchle-Ring,Steig 51+52,48.177192000000,11.529014000000,0,de:09162:312,0,52,4
de:09162:316:1:1,,Bingener Straße,Steig 1,48.181894000000,11.521873000000,0,,0,1,2
de:09162:316:4:4,,Bingener Straße,Steig 4,48.182295000000,11.521370000000,0,,0,4,2
de:09162:316:5:5,,Bingener Straße,Steig 5,48.182690000000,11.521001000000,0,,0,5,2
de:09162:318:1:1,,Olympia-Einkaufszentrum West,Steig 1,48.183858000000,11.531431000000,0,,0,1,2
de:09162:318:2:2,,Olympia-Einkaufszentrum West,Steig 2,48.184158000000,11.531395000000,0,,0,2,2
de:09162:320:1:1,,Feldmoching,Bus Steig 1,48.213611000000,11.540773000000,0,,0,1,2
de:09162:320:2:2,,Feldmoching,Bus Steig 2,48.213845000000,11.540630000000,0,,0,2,2
de:09162:320:3:3,,Feldmoching,Bus Steig 3/4/5,48.213539000000,11.540495000000,0,,0,3,2
de:09162:320:3:4,,Feldmoching,Bus Steig 3/4/5,48.213282000000,11.540486000000,0,,0,4,2
de:09162:320:6:6,,Feldmoching,Bus Steig 6,48.213929000000,11.539022000000,0,,0,6,2
de:09162:320:51:51,,Feldmoching,Steig 51+52,48.213881000000,11.540827000000,0,,0,51,4
de:09162:320:51:52,,Feldmoching,Steig 51+52,48.213791000000,11.540827000000,0,,0,52,4
de:09162:322:1:1,,Lassallestraße,Steig 1,48.186907000000,11.534144000000,0,,0,1,2
de:09162:322:2:2,,Lassallestraße,Steig 2,48.186763000000,11.533362000000,0,,0,2,2
de:09162:322:3:3,,Lassallestraße,Steig 3,48.187200000000,11.533281000000,0,,0,3,2
de:09162:322:4:4,,Lassallestraße,Steig 4,48.187368000000,11.533874000000,0,,0,4,2
de:09162:323:1:1,,Olympiapark Nord,Steig 1,48.186188000000,11.542462000000,0,,0,1,2
de:09162:323:2:2,,Olympiapark Nord,Steig 2,48.186613000000,11.540630000000,0,,0,2,2
de:09162:324:1:1,,Lerchenauer Straße,Steig 1,48.185469000000,11.551921000000,0,,0,1,2
de:09162:324:2:2,,Lerchenauer Straße,Steig 2,48.186182000000,11.550448000000,0,,0,2,2
de:09162:324:3:3,,Lerchenauer Straße,Steig 3,48.185937000000,11.552379000000,0,,0,3,2
de:09162:324:4:4,,Lerchenauer Straße,Steig 4,48.186661000000,11.551481000000,0,,0,4,2
de:09162:325:1:1,,Olympiapark Eissportstadion,Steig 1,48.176329000000,11.559746000000,0,,0,1,2
de:09162:325:2:2,,Olympiapark Eissportstadion,Steig 2,48.175886000000,11.559575000000,0,,0,2,2
de:09162:329:1:1,,Anhalter Platz,Steig 1,48.186733000000,11.561982000000,0,,0,1,2
de:09162:329:2:2,,Anhalter Platz,Steig 2,48.186973000000,11.561767000000,0,,0,2,2
de:09162:329:3:3,,Anhalter Platz,Steig 3,48.186428000000,11.562270000000,0,,0,3,2
de:09162:329:4:4,,Anhalter Platz,Steig 4,48.186595000000,11.562486000000,0,,0,4,2
de:09162:331:1:1,,Moosacher Straße,Steig 1,48.187134000000,11.566797000000,0,,0,1,2
de:09162:331:2:2,,Moosacher Straße,Steig 2,48.187266000000,11.565585000000,0,,0,2,2
de:09162:331:3:3,,Moosacher Straße,Steig 3,48.187560000000,11.566285000000,0,,0,3,2
de:09162:331:4:4,,Moosacher Straße,Steig 4,48.186835000000,11.565953000000,0,,0,4,2
de:09162:340:1:3,,Petuelring,Steig 3/4/5/7/8,48.175436000000,11.566420000000,0,,0,3,2
de:09162:340:1:4,,Petuelring,Steig 3/4/5/7/8,48.175395000000,11.566609000000,0,,0,4,2
de:09162:340:1:5,,Petuelring,Steig 3/4/5/7/8,48.175353000000,11.566537000000,0,,0,5,2
de:09162:340:1:7,,Petuelring,Steig 3/4/5/7/8,48.175436000000,11.566681000000,0,,0,7,2
de:09162:340:1:8,,Petuelring,Steig 3/4/5/7/8,48.175311000000,11.566465000000,0,,0,8,2
de:09162:340:2:1,,Petuelring,Steig 1/2/6,48.175245000000,11.566187000000,0,,0,1,2
de:09162:340:2:2,,Petuelring,Steig 1/2/6,48.175083000000,11.566267000000,0,,0,2,2
de:09162:340:2:6,,Petuelring,Steig 1/2/6,48.175131000000,11.566465000000,0,,0,6,2
de:09162:340:51:51,,Petuelring,Steig 51+52,48.175748000000,11.565881000000,0,de:09162:340,0,51,4
de:09162:340:51:52,,Petuelring,Steig 51+52,48.175646000000,11.565872000000,0,de:09162:340,0,52,4
de:09162:340:21:21,,Petuelring,Steig 21,48.175556000000,11.566142000000,0,,0,21,2
de:09162:340:22:22,,Petuelring,Steig 22,48.175167000000,11.566842000000,0,,0,22,2
de:09162:340:65,,Petuelring,Schleißheimer Tre,48.175191000000,11.566905000000,2,de:09162:340,0,,2
de:09162:342:3:LSE 1,,Lerchenauer See,Steig 1+2,48.198039000000,11.535734000000,0,,0,1,2
de:09162:343:3:MWO 1,,Max-Wönner-Straße,Steig 1+2,48.199411000000,11.535913000000,0,,0,1,2
de:09162:344:3:3,,Franz-Sperr-Weg,Steig 3,48.203973000000,11.538815000000,0,,0,3,2
de:09162:344:5:5,,Franz-Sperr-Weg,Steig 5,48.203829000000,11.538743000000,0,,0,5,2
de:09162:346:1:1,,Paidarstraße,Steig 1,48.214725000000,11.545328000000,0,,0,1,2
de:09162:346:2:2,,Paidarstraße,Steig 2,48.214874000000,11.544483000000,0,,0,2,2
de:09162:349:1:1,,Stanigplatz,Steig 1,48.216826000000,11.553520000000,0,,0,1,2
de:09162:350:1:9,,Olympiazentrum,Steig 9,48.178743000000,11.556808000000,0,,0,9,2
de:09162:350:2:10,,Olympiazentrum,Steig 10,48.178659000000,11.556557000000,0,,0,10,2
de:09162:350:3:8,,Olympiazentrum,Steig 8,48.178983000000,11.556009000000,0,,0,8,2
de:09162:350:51:53,,Olympiazentrum,Steig 51+53,48.179372000000,11.555955000000,0,de:09162:350,0,53,4
de:09162:350:51:51,,Olympiazentrum,Steig 51+53,48.179390000000,11.556054000000,0,de:09162:350,0,51,4
de:09162:350:52:52,,Olympiazentrum,Steig 52+54,48.179312000000,11.555784000000,0,de:09162:350,0,52,4
de:09162:350:52:54,,Olympiazentrum,Steig 52+54,48.179342000000,11.555865000000,0,de:09162:350,0,54,4
de:09162:350:20,,Olympiazentrum,P+R,48.179977000000,11.554230000000,2,de:09162:350,0,,2
de:09162:351:1:1,,Stösserstraße,Steig 1,48.219747000000,11.557554000000,0,,0,1,2
de:09162:351:2:2,,Stösserstraße,Steig 2,48.219794000000,11.556700000000,0,,0,2,2
de:09162:353:2:2,,Robinienstraße,Steig 2,48.200872000000,11.543962000000,0,,0,2,2
de:09162:354:1:1,,Goldlackplatz,Steig 1,48.200129000000,11.550502000000,0,,0,1,2
de:09162:355:3:GNM 1,,Gundermannstraße,Steig 1+2,48.204230000000,11.552649000000,0,,0,1,2
de:09162:356:1:1,,Hasenbergl Süd,Steig 1,48.208313000000,11.551454000000,0,,0,1,2
de:09162:356:2:2,,Hasenbergl Süd,Steig 2,48.208445000000,11.551787000000,0,,0,2,2
de:09162:357:3:ITL 1,,Ittlingerstraße,ITL Bus,48.208409000000,11.555802000000,0,,0,1,2
de:09162:360:1:1,,Olympia-Einkaufszentrum,Steig 1,48.182139000000,11.529113000000,0,,0,1,2
de:09162:360:2:2,,Olympia-Einkaufszentrum,Steig 2,48.182451000000,11.530173000000,0,,0,2,2
de:09162:360:3:3,,Olympia-Einkaufszentrum,Steig 3,48.182020000000,11.530371000000,0,,0,3,2
de:09162:360:4:4,,Olympia-Einkaufszentrum,Steig 4,48.181762000000,11.529185000000,0,,0,4,2
de:09162:360:51:51,,Olympia-Einkaufszentrum,Steig 51,48.182595000000,11.530245000000,0,de:09162:360,0,51,4
de:09162:360:52:52,,Olympia-Einkaufszentrum,Steig 52,48.182636000000,11.530137000000,0,de:09162:360,0,52,4
de:09162:360:53:53,,Olympia-Einkaufszentrum,Steig 53+54,48.182139000000,11.530398000000,0,de:09162:360,0,53,3
de:09162:360:53:54,,Olympia-Einkaufszentrum,Steig 53+54,48.182067000000,11.530407000000,0,de:09162:360,0,54,3
de:09162:360:70,,Olympia-Einkaufszentrum,Hanauerstr FT11,48.182187000000,11.529293000000,2,de:09162:360,0,,2
de:09162:360:71,,Olympia-Einkaufszentrum,Hanauerstr FT8,48.182289000000,11.530137000000,2,de:09162:360,0,,2
de:09162:363:1:1,,Pulverturmstraße,Steig 1,48.201662000000,11.553574000000,0,,0,1,2
de:09162:363:2:2,,Pulverturmstraße,Steig 2,48.202159000000,11.553422000000,0,,0,2,2
de:09162:366:1:1,,Gröbenzeller Straße,Steig 1,48.183247000000,11.507527000000,0,,0,1,2
de:09162:366:2:2,,Gröbenzeller Straße,Steig 2,48.183703000000,11.506997000000,0,,0,2,2
de:09162:366:3:3,,Gröbenzeller Straße,Steig 3,48.182589000000,11.507284000000,0,,0,3,2
de:09162:366:4:4,,Gröbenzeller Straße,Steig 4,48.182852000000,11.507805000000,0,,0,4,2
de:09162:368:1:1,,Feldmoching Bf. Ost,Steig 1,48.213575000000,11.543145000000,0,,0,1,2
de:09162:368:2:2,,Feldmoching Bf. Ost,Steig 2,48.214060000000,11.543289000000,0,,0,2,2
de:09162:370:1:1,,Moosacher St.-Martins-Platz,Steig 1,48.181762000000,11.517381000000,0,,0,1,2
de:09162:370:2:2,,Moosacher St.-Martins-Platz,Steig 2,48.181870000000,11.517354000000,0,,0,2,2
de:09162:370:51:51,,Moosacher St.-Martins-Platz,Steig 51+52,48.181888000000,11.518594000000,0,de:09162:370,0,51,4
de:09162:370:51:52,,Moosacher St.-Martins-Platz,Steig 51+52,48.181816000000,11.518594000000,0,de:09162:370,0,52,4
de:09162:376:3:MEB 1,,Merseburger Straße,Steig 1+2,48.185955000000,11.521064000000,0,,0,1,2
de:09162:377:1:1,,Claudiusplatz,Steig 1,48.181966000000,11.525313000000,0,,0,1,2
de:09162:380:1:1,,Oberwiesenfeld,Steig 1,48.186068000000,11.545759000000,0,,0,1,2
de:09162:380:2:2,,Oberwiesenfeld,Steig 2,48.186308000000,11.545687000000,0,,0,2,2
de:09162:380:51:51,,Oberwiesenfeld,Steig 51+52,48.186038000000,11.547654000000,0,de:09162:380,0,51,4
de:09162:380:51:52,,Oberwiesenfeld,Steig 51+52,48.185973000000,11.547645000000,0,de:09162:380,0,52,4
de:09162:380:20,,Oberwiesenfeld,P+R,48.185979000000,11.543971000000,2,de:09162:380,0,,2
de:09162:381:2:2,,Ludwigsfeld (Campingplatz),Steig 2,48.199405000000,11.497492000000,0,,0,2,2
de:09162:382:3:BAN 2,,Am Blütenanger,Steig 1+2,48.201847000000,11.506251000000,0,,0,2,2
de:09162:383:3:PAP 2,,Pappelallee,Steig 1+2,48.200488000000,11.512728000000,0,,0,2,2
de:09162:384:3:SON 1,,Sonnentaustraße,Steig 1+2,48.199159000000,11.518800000000,0,,0,1,2
de:09162:385:3:KUK 1,,Kuckucksblumenstraße,Steig 1+2,48.198830000000,11.522412000000,0,,0,1,2
de:09162:398:1:1,,Scheidplatz Süd,Steig 1,48.170177000000,11.574316000000,0,,0,1,2
de:09162:398:2:2,,Scheidplatz Süd,Steig 2,48.170722000000,11.573661000000,0,,0,2,2
de:09162:400:2:2,,Scheidplatz,Steig 2,48.171608000000,11.572583000000,0,de:09162:400,0,2,2
de:09162:400:6:6,,Scheidplatz,Steig 6,48.171662000000,11.572654000000,0,de:09162:400,0,6,2
de:09162:400:3:3,,Scheidplatz,Steig 3+4,48.171267000000,11.572951000000,0,de:09162:400,0,3,2
de:09162:400:3:4,,Scheidplatz,Steig 3+4,48.171393000000,11.572996000000,0,de:09162:400,0,4,2
de:09162:400:5:1,,Scheidplatz,Steig 1+5,48.171477000000,11.573041000000,0,de:09162:400,0,1,2
de:09162:400:5:5,,Scheidplatz,Steig 1+5,48.171782000000,11.572933000000,0,de:09162:400,0,5,2
de:09162:400:51:51,,Scheidplatz,Steig 51+53,48.171537000000,11.572987000000,0,,0,51,4
de:09162:400:51:53,,Scheidplatz,Steig 51+53,48.171549000000,11.572906000000,0,,0,53,4
de:09162:400:52:52,,Scheidplatz,Steig 52+54,48.171549000000,11.572681000000,0,,0,52,4
de:09162:400:52:54,,Scheidplatz,Steig 52+54,48.171549000000,11.572762000000,0,,0,54,4
de:09162:402:1:1,,Röblingweg,Steig 1,48.204416000000,11.572843000000,0,,0,1,2
de:09162:402:2:2,,Röblingweg,Steig 2,48.205099000000,11.572511000000,0,,0,2,2
de:09162:405:1:1,,Weitlstraße,Steig 1,48.208523000000,11.563033000000,0,,0,1,2
de:09162:407:1:1,,Abtstraße,Steig 1,48.184176000000,11.578574000000,0,,0,1,2
de:09162:407:2:2,,Abtstraße,Steig 2,48.184284000000,11.578934000000,0,,0,2,2
de:09162:408:1:1,,Weyprechtstraße,Steig 1,48.204602000000,11.564228000000,0,,0,1,2
de:09162:408:2:2,,Weyprechtstraße,Steig 2,48.204985000000,11.563968000000,0,,0,2,2
de:09162:408:4:4,,Weyprechtstraße,Steig 4,48.204991000000,11.563537000000,0,,0,4,2
de:09162:409:1:1,,Rathenaustraße,Steig 1,48.200913000000,11.573705000000,0,,0,1,2
de:09162:414:1:1,,Sudetendeutsche Straße,Steig 1,48.196099000000,11.578359000000,0,,0,1,2
de:09162:414:2:2,,Sudetendeutsche Straße,Steig 2,48.196207000000,11.578556000000,0,,0,2,2
de:09162:419:1:1,,Rümannstraße,Steig 1,48.175808000000,11.573050000000,0,,0,1,2
de:09162:419:3:3,,Rümannstraße,Steig 3,48.176401000000,11.572574000000,0,,0,3,2
de:09162:423:1:1,,Griegstraße,Steig 1,48.182032000000,11.585060000000,0,,0,1,2
de:09162:423:2:2,,Griegstraße,Steig 2,48.181534000000,11.584746000000,0,,0,2,2
de:09162:425:1:1,,Domagkstraße West,Steig 1,48.184355000000,11.584198000000,0,,0,1,2
de:09162:425:2:2,,Domagkstraße West,Steig 2,48.184631000000,11.584809000000,0,,0,2,2
de:09162:425:3:3,,Domagkstraße West,Steig 3,48.184020000000,11.584503000000,0,,0,3,2
de:09162:425:4:4,,Domagkstraße West,Steig 4,48.184266000000,11.585159000000,0,,0,4,2
de:09162:430:1:4,,Kieferngarten,Steig 4,48.201901000000,11.611983000000,0,,0,4,2
de:09162:430:3:1,,Kieferngarten,Steig 1+2+3,48.202434000000,11.612477000000,0,,0,1,2
de:09162:430:3:2,,Kieferngarten,Steig 1+2+3,48.202716000000,11.612728000000,0,,0,2,2
de:09162:430:3:3,,Kieferngarten,Steig 1+2+3,48.202488000000,11.612692000000,0,,0,3,2
de:09162:430:51:51,,Kieferngarten,Steig 51+53,48.203847000000,11.613294000000,0,de:09162:430,0,51,5
de:09162:430:51:53,,Kieferngarten,Steig 51+53,48.203841000000,11.613366000000,0,de:09162:430,0,53,5
de:09162:430:52:52,,Kieferngarten,Steig 52+54,48.203877000000,11.613133000000,0,de:09162:430,0,52,5
de:09162:430:52:54,,Kieferngarten,Steig 52+54,48.203859000000,11.613213000000,0,de:09162:430,0,54,5
de:09162:430:71:71,,Kieferngarten,Steig 71,48.202530000000,11.612108000000,0,,0,71,2
de:09162:430:20,,Kieferngarten,P+R,48.201847000000,11.612396000000,2,de:09162:430,0,,5
de:09162:432:1:1,,Wilhelm-Hertz-Straße,Steig 1,48.175640000000,11.585680000000,0,,0,1,2
de:09162:432:2:2,,Wilhelm-Hertz-Straße,Steig 2,48.176018000000,11.585159000000,0,,0,2,2
de:09162:433:3:2,,Parzivalplatz,Steig 2+6,48.171207000000,11.585446000000,0,,0,2,2
de:09162:433:4:4,,Parzivalplatz,Steig 4+5,48.171890000000,11.585958000000,0,de:09162:433,0,4,2
de:09162:433:4:5,,Parzivalplatz,Steig 4+5,48.171614000000,11.585887000000,0,de:09162:433,0,5,2
de:09162:433:3:6,,Parzivalplatz,Steig 2+6,48.171033000000,11.585446000000,0,,0,6,2
de:09162:434:1:1,,Potsdamer Straße,Steig 1,48.166624000000,11.586057000000,0,,0,1,2
de:09162:434:2:2,,Potsdamer Straße,Steig 2,48.167882000000,11.586426000000,0,,0,2,2
de:09162:434:3:3,,Potsdamer Straße,Steig 3,48.167301000000,11.587019000000,0,,0,3,2
de:09162:434:4:4,,Potsdamer Straße,Steig 4,48.167720000000,11.586282000000,0,de:09162:434,0,4,2
de:09162:434:5:5,,Potsdamer Straße,Steig 5,48.166786000000,11.586192000000,0,de:09162:434,0,5,2
de:09162:434:30:70,,Potsdamer Straße,Steig 70,48.167355000000,11.585671000000,0,,0,70,2
de:09162:435:1:1,,Kölner Platz,Steig 1+3,48.170159000000,11.577389000000,0,,0,1,2
de:09162:436:1:1,,Neuherbergstraße,Steig 1,48.210061000000,11.587324000000,0,,0,1,2
de:09162:436:2:2,,Neuherbergstraße,Steig 2,48.210564000000,11.586524000000,0,,0,2,2
de:09162:436:3:3,,Neuherbergstraße,Steig 3,48.210097000000,11.586866000000,0,,0,3,2
de:09162:437:1:1,,Anton-Will-Straße,Steig 1,48.205320000000,11.585958000000,0,,0,1,2
de:09162:437:2:2,,Anton-Will-Straße,Steig 2,48.205967000000,11.586506000000,0,,0,2,2
de:09162:438:1:1,,Heidemannstraße,Steig 1,48.200949000000,11.586021000000,0,,0,1,2
de:09162:438:2:2,,Heidemannstraße,Steig 2,48.201758000000,11.585671000000,0,,0,2,2
de:09162:438:3:3,,Heidemannstraße,Steig 3,48.200602000000,11.585060000000,0,,0,3,2
de:09162:439:1:1,,Gundelkoferstraße,Steig 1,48.196093000000,11.584620000000,0,,0,1,2
de:09162:439:2:2,,Gundelkoferstraße,Steig 2,48.195572000000,11.584090000000,0,,0,2,2
de:09162:439:3:3,,Gundelkoferstraße,Steig 3,48.195920000000,11.582985000000,0,,0,3,2
de:09162:445:1:1,,Bernsteinweg,Steig 1,48.200662000000,11.611596000000,0,,0,1,2
de:09162:445:2:2,,Bernsteinweg,Steig 2,48.201183000000,11.611956000000,0,,0,2,2
de:09162:448:1:1,,Gertrud-Grunow-Straße,Steig 1,48.182918000000,11.596568000000,0,,0,1,2
de:09162:448:2:2,,Gertrud-Grunow-Straße,Steig 2,48.183020000000,11.596756000000,0,,0,2,2
de:09162:451:1:1,,Kollwitzstraße,Steig 1,48.198560000000,11.585006000000,0,,0,1,2
de:09162:451:2:2,,Kollwitzstraße,Steig 2,48.198003000000,11.584593000000,0,,0,2,2
de:09162:452:3:PUN 1,,Pündterplatz,,48.162603000000,11.576868000000,0,,0,,
de:09162:455:3:BIS 1,,Bismarckstraße,,48.162436000000,11.582195000000,0,,0,,
de:09162:457:1:1,,Zaunweg,Steig 1,48.180546000000,11.601535000000,0,,0,1,2
de:09162:457:2:2,,Zaunweg,Steig 2,48.180917000000,11.601257000000,0,,0,2,2
de:09162:458:1:1,,Freiligrathstraße,Steig 1,48.178372000000,11.585024000000,0,,0,1,2
de:09162:458:2:2,,Freiligrathstraße,Steig 2,48.177958000000,11.585536000000,0,,0,2,2
de:09184:460:11,,"Garching, Forschungszentrum",U-Bahnsteig,48.264796000000,11.671433000000,0,de:09184:460,0,,1
de:09184:460:30:1,,"Garching, Forschungszentrum",Bus,48.264778000000,11.671227000000,0,,0,1,2
de:09184:460:30:2,,"Garching, Forschungszentrum",Bus,48.264999000000,11.671280000000,0,,0,2,2
de:09184:460:80,,"Garching, Forschungszentrum",Zu-NO,48.265447000000,11.671667000000,2,de:09184:460,0,,2
de:09184:460:81,,"Garching, Forschungszentrum",Zu-Mitte,48.264844000000,11.671433000000,2,de:09184:460,0,,2
de:09184:460:82,,"Garching, Forschungszentrum",Zu-SW,48.263869000000,11.671074000000,2,de:09184:460,0,,2
de:09184:460:90,,"Garching, Forschungszentrum",P+R,48.263498000000,11.670310000000,2,de:09184:460,0,,2
de:09162:470:51:51,,Fröttmaning,Steig 51+53,48.211768000000,11.616834000000,0,de:09162:470_G,0,51,2
de:09162:470:51:53,,Fröttmaning,Steig 51+53,48.211792000000,11.616753000000,0,de:09162:470_G,0,53,2
de:09162:470:52:52,,Fröttmaning,Steig 52+54,48.211845000000,11.616519000000,0,de:09162:470_G,0,52,2
de:09162:470:52:54,,Fröttmaning,Steig 52+54,48.211821000000,11.616618000000,0,de:09162:470_G,0,54,2
de:09162:470:20,,Fröttmaning,P+R,48.210792000000,11.619142000000,2,de:09162:470_G,0,,5
de:09184:480:1:1,,Garching-Hochbrück,Busbahnhof,48.247654000000,11.631117000000,0,,0,1,2
de:09184:480:1:2,,Garching-Hochbrück,Busbahnhof,48.247475000000,11.631000000000,0,,0,2,2
de:09184:480:1:3,,Garching-Hochbrück,Busbahnhof,48.247307000000,11.630883000000,0,,0,3,2
de:09184:480:1:4,,Garching-Hochbrück,Busbahnhof,48.247194000000,11.630793000000,0,,0,4,2
de:09184:480:1:5,,Garching-Hochbrück,Busbahnhof,48.248061000000,11.631216000000,0,,0,5,2
de:09184:480:1:6,,Garching-Hochbrück,Busbahnhof,48.247858000000,11.631243000000,0,,0,6,2
de:09184:480:1:7,,Garching-Hochbrück,Busbahnhof,48.246769000000,11.630290000000,0,,0,7,2
de:09184:480:11,,Garching-Hochbrück,U-Bahn RiGarching,48.247433000000,11.631162000000,0,de:09184:480,0,,2
de:09184:480:12,,Garching-Hochbrück,U-Bahn RiFröttman,48.247445000000,11.631117000000,0,de:09184:480,0,,2
de:09184:480:70,,Garching-Hochbrück,Überführung Nord,48.248013000000,11.631530000000,3,de:09184:480,0,,5
de:09184:480:71,,Garching-Hochbrück,Überführung Süd,48.246679000000,11.630632000000,3,de:09184:480,0,,5
de:09184:480:80,,Garching-Hochbrück,Zugang B+R Nordwe,48.248432000000,11.630937000000,2,de:09184:480,0,,5
de:09184:480:81,,Garching-Hochbrück,Zugang NordostP+R,48.247947000000,11.631665000000,2,de:09184:480,0,,5
de:09184:480:82,,Garching-Hochbrück,Zugang B+R Südwes,48.246697000000,11.630021000000,2,de:09184:480,0,,2
de:09184:480:90,,Garching-Hochbrück,P+R,48.248737000000,11.630991000000,2,de:09184:480,0,,5
de:09184:480:99,,Garching-Hochbrück,Taxi,48.248378000000,11.630766000000,2,de:09184:480,0,,2
de:09184:490:1:1,,Garching,BusRiNordost,48.249861000000,11.653224000000,0,,0,1,2
de:09184:490:1:2,,Garching,BusRiNordost,48.249832000000,11.653197000000,0,,0,2,2
de:09184:490:2:3,,Garching,BusRiSüdwest,48.249299000000,11.651787000000,0,,0,3,2
de:09184:490:11,,Garching,U-Bahnsteig,48.249275000000,11.652326000000,0,de:09184:490,0,,4
de:09184:490:70,,Garching,ZG-W,48.249305000000,11.651886000000,3,de:09184:490,0,,1
de:09184:490:71,,Garching,ZG-O,48.249215000000,11.653161000000,3,de:09184:490,0,,1
de:09184:490:80,,Garching,Zu-W,48.249389000000,11.651805000000,2,de:09184:490,0,,2
de:09162:500:1:10,,Münchner Freiheit,Steig 7+8+10,48.162334000000,11.586632000000,0,,0,10,2
de:09162:500:1:8,,Münchner Freiheit,Steig 7+8+10,48.162232000000,11.586533000000,0,,0,8,2
de:09162:500:2:6,,Münchner Freiheit,Steig 6,48.161860000000,11.585797000000,0,,0,6,2
de:09162:500:3:9,,Münchner Freiheit,Steig 9,48.162837000000,11.586183000000,0,,0,9,2
de:09162:500:1:7,,Münchner Freiheit,Steig 7+8+10,48.162430000000,11.586659000000,0,,0,7,2
de:09162:500:32:42,,Münchner Freiheit,Steig 42,48.161081000000,11.586003000000,0,,0,42,2
de:09162:500:33:43,,Münchner Freiheit,Steig 43,48.161081000000,11.586408000000,0,,0,43,2
de:09162:500:51:53,,Münchner Freiheit,Steig 51+53,48.161507000000,11.586489000000,0,de:09162:500,0,53,4
de:09162:500:51:51,,Münchner Freiheit,Steig 51+53,48.161525000000,11.586372000000,0,de:09162:500,0,51,4
de:09162:500:52:54,,Münchner Freiheit,Steig 52+54,48.161561000000,11.586111000000,0,de:09162:500,0,54,4
de:09162:500:52:52,,Münchner Freiheit,Steig 52+54,48.161543000000,11.586264000000,0,de:09162:500,0,52,4
de:09162:500:70,,Münchner Freiheit,Feilitzsch Treppe,48.161824000000,11.587027000000,2,de:09162:500,0,,2
de:09162:500:90,,Münchner Freiheit,MU Fahrerraum,48.162603000000,11.586345000000,3,de:09162:500,0,,1
de:09162:502:2:DOK 1,,Domagkstraße,DOK Tram,48.183792000000,11.590208000000,0,,0,1,2
de:09162:502:2:DOK 2,,Domagkstraße,DOK Tram,48.183786000000,11.590333000000,0,,0,2,2
de:09162:502:3:DOK 3,,Domagkstraße,DOK Bus,48.184254000000,11.590827000000,0,,0,3,2
de:09162:502:3:DOK 4,,Domagkstraße,DOK Bus,48.184068000000,11.591232000000,0,,0,4,2
de:09162:503:1:1,,Schwabing Nord,Steig 1+5,48.186673000000,11.590944000000,0,,0,1,2
de:09162:503:2:2,,Schwabing Nord,Steig 2,48.187057000000,11.591609000000,0,,0,2,2
de:09162:503:3:3,,Schwabing Nord,Steig 3,48.188057000000,11.591833000000,0,,0,3,2
de:09162:503:4:4,,Schwabing Nord,Steig 4,48.187793000000,11.591860000000,0,,0,4,2
de:09162:510:1:1,,Dietlindenstraße,Steig 1,48.166342000000,11.591034000000,0,,0,1,2
de:09162:510:2:2,,Dietlindenstraße,Steig 2,48.166348000000,11.590648000000,0,,0,2,2
de:09162:510:3:3,,Dietlindenstraße,Steig 3,48.166780000000,11.590639000000,0,,0,3,2
de:09162:510:4:4,,Dietlindenstraße,Steig 4,48.166456000000,11.590028000000,0,,0,4,2
de:09162:510:51:52,,Dietlindenstraße,Steig 51+52,48.167169000000,11.590863000000,0,de:09162:510,0,52,4
de:09162:510:51:51,,Dietlindenstraße,Steig 51+52,48.167133000000,11.590935000000,0,de:09162:510,0,51,4
de:09162:511:1:1,,Osterwaldstraße,Steig 1,48.163322000000,11.596855000000,0,,0,1,2
de:09162:511:2:2,,Osterwaldstraße,Steig 2,48.163604000000,11.595597000000,0,,0,2,2
de:09162:512:1:1,,Herzogpark,Steig 1,48.156138000000,11.607284000000,0,,0,1,2
de:09162:512:2:2,,Herzogpark,Steig 2,48.155928000000,11.607123000000,0,,0,2,2
de:09162:520:1:1,,Nordfriedhof,Steig 1,48.173016000000,11.596720000000,0,,0,1,2
de:09162:520:2:2,,Nordfriedhof,Steig 2,48.172249000000,11.596424000000,0,,0,2,2
de:09162:520:3:3,,Nordfriedhof,Steig 3,48.173921000000,11.598140000000,0,,0,3,2
de:09162:520:8:8,,Nordfriedhof,Steig 8,48.173699000000,11.597888000000,0,,0,8,2
de:09162:520:9:9,,Nordfriedhof,Steig 9,48.173064000000,11.597637000000,0,,0,9,2
de:09162:520:51:51,,Nordfriedhof,Steig 51,48.173070000000,11.596954000000,0,de:09162:520,0,51,4
de:09162:520:52:52,,Nordfriedhof,Steig 52,48.173118000000,11.596855000000,0,de:09162:520,0,52,4
de:09162:530:1:1,,Alte Heide,Steig 1,48.179737000000,11.603233000000,0,,0,1,2
de:09162:530:2:2,,Alte Heide,Steig 2,48.179785000000,11.603503000000,0,,0,2,2
de:09162:530:4:4,,Alte Heide,Steig 4,48.179887000000,11.604158000000,0,,0,4,2
de:09162:530:31:41,,Alte Heide,Steig 41,48.179654000000,11.604347000000,0,,0,41,2
de:09162:530:33:43,,Alte Heide,Steig 43,48.177791000000,11.601832000000,0,,0,43,2
de:09162:530:34:74,,Alte Heide,Steig 74,48.180588000000,11.604976000000,0,,0,74,2
de:09162:530:51:52,,Alte Heide,Steig 51+52,48.178629000000,11.602595000000,0,de:09162:530,0,52,4
de:09162:530:51:51,,Alte Heide,Steig 51+52,48.178587000000,11.602694000000,0,de:09162:530,0,51,4
de:09162:540:1:1,,Studentenstadt,Steig 1,48.183733000000,11.608093000000,0,,0,1,2
de:09162:540:3:3,,Studentenstadt,Steig 3,48.184176000000,11.608560000000,0,,0,3,2
de:09162:540:4:4,,Studentenstadt,Steig 4,48.184469000000,11.608875000000,0,,0,4,2
de:09162:540:5:5,,Studentenstadt,Steig 5,48.184733000000,11.609315000000,0,,0,5,2
de:09162:540:6:6,,Studentenstadt,Steig 6,48.183469000000,11.607832000000,0,,0,6,2
de:09162:540:7:7,,Studentenstadt,Steig 7,48.183912000000,11.608273000000,0,,0,7,2
de:09162:540:8:8,,Studentenstadt,Steig 8,48.183068000000,11.607967000000,0,,0,8,2
